{"type": "FeatureCollection", "features":[{"commodity": "Al", "country_code": "GY", "geometry": {"coordinates": [-58.55653, 6.27293], "type": "Point"}, "geometry_name": "Putarima Area", "id": "Putarima Area", "properties": {}, "type": "Feature"}, {"commodity": "Al", "country_code": "SR", "geometry": {"coordinates": [-56.42065, 4.43052], "type": "Point"}, "geometry_name": "Kroetoeberg", "id": "Kroetoeberg", "properties": {}, "type": "Feature"}, {"commodity": "Al", "country_code": "US", "geometry": {"coordinates": [-84.14051, 32.23208], "type": "Point"}, "geometry_name": "Mcmichael Mine", "id": "Mcmichael Mine", "properties": {}, "type": "Feature"}, {"commodity": "Al", "country_code": "JP", "geometry": {"coordinates": [138.48205, 35.01541], "type": "Point"}, "geometry_name": "Shimizu", "id": "Shimizu", "properties": {}, "type": "Feature"}, {"commodity": "Al", "country_code": "US", "geometry": {"coordinates": [-85.74716, 33.64264], "type": "Point"}, "geometry_name": "De Armanville Prospect", "id": "De Armanville Prospect", "properties": {}, "type": "Feature"}, {"commodity": "Al", "country_code": "HU", "geometry": {"coordinates": [18.41875, 47.56535], "type": "Point"}, "geometry_name": "Fejer Mine", "id": "Fejer Mine", "properties": {}, "type": "Feature"}, {"commodity": "Al", "country_code": "US", "geometry": {"coordinates": [-85.34775, 31.75079], "type": "Point"}, "geometry_name": "Unnamed Deposit", "id": "Unnamed Deposit", "properties": {}, "type": "Feature"}, {"commodity": "Al", "country_code": "US", "geometry": {"coordinates": [-118.36626, 38.77352], "type": "Point"}, "geometry_name": "Valley View Mine", "id": "Valley View Mine", "properties": {}, "type": "Feature"}, {"commodity": "Al", "country_code": "US", "geometry": {"coordinates": [-112.64825, 34.60974], "type": "Point"}, "geometry_name": "Granite Mtn Deposit", "id": "Granite Mtn Deposit", "properties": {}, "type": "Feature"}, {"commodity": "Al", "country_code": "BH", "geometry": {"coordinates": [50.60108, 26.04927], "type": "Point"}, "geometry_name": "Alba Knuff", "id": "Alba Knuff", "properties": {}, "type": "Feature"}, {"commodity": "Al", "country_code": "US", "geometry": {"coordinates": [-85.24884, 31.69439], "type": "Point"}, "geometry_name": "Unnamed Deposit", "id": "Unnamed Deposit", "properties": {}, "type": "Feature"}, {"commodity": "Al", "country_code": "US", "geometry": {"coordinates": [-85.34355, 31.73349], "type": "Point"}, "geometry_name": "T C Green Mine", "id": "T C Green Mine", "properties": {}, "type": "Feature"}, {"commodity": "Al", "country_code": "US", "geometry": {"coordinates": [-92.25826, 34.66872], "type": "Point"}, "geometry_name": "Mine No. 7", "id": "Mine No. 7", "properties": {}, "type": "Feature"}, {"commodity": "Al", "country_code": "US", "geometry": {"coordinates": [-123.02199, 44.83121], "type": "Point"}, "geometry_name": "Entress Farm", "id": "Entress Farm", "properties": {}, "type": "Feature"}, {"commodity": "Al", "country_code": "JP", "geometry": {"coordinates": [139.64871, 35.432], "type": "Point"}, "geometry_name": "Yokohama", "id": "Yokohama", "properties": {}, "type": "Feature"}, {"commodity": "Al", "country_code": "US", "geometry": {"coordinates": [-85.19854, 34.11433], "type": "Point"}, "geometry_name": "South Ware Mountain Mine", "id": "South Ware Mountain Mine", "properties": {}, "type": "Feature"}, {"commodity": "Al", "country_code": "US", "geometry": {"coordinates": [-112.11271, 38.4633], "type": "Point"}, "geometry_name": "Aluminum Queen Deposit", "id": "Aluminum Queen Deposit", "properties": {}, "type": "Feature"}, {"commodity": "Al", "country_code": "HU", "geometry": {"coordinates": [17.53534, 47.06538], "type": "Point"}, "geometry_name": "Bito Ii Mine", "id": "Bito Ii Mine", "properties": {}, "type": "Feature"}, {"commodity": "Al", "country_code": "US", "geometry": {"coordinates": [-84.08241, 32.18598], "type": "Point"}, "geometry_name": "Sumter County Mines", "id": "Sumter County Mines", "properties": {}, "type": "Feature"}, {"commodity": "Al", "country_code": "US", "geometry": {"coordinates": [-89.21866, 34.37703], "type": "Point"}, "geometry_name": "Mrs. O.D. Gray Property", "id": "Mrs. O.D. Gray Property", "properties": {}, "type": "Feature"}, {"commodity": "Al", "country_code": "US", "geometry": {"coordinates": [-84.96053, 34.28203], "type": "Point"}, "geometry_name": "Conneseena Mine", "id": "Conneseena Mine", "properties": {}, "type": "Feature"}, {"commodity": "Al", "country_code": "US", "geometry": {"coordinates": [-85.15134, 31.75129], "type": "Point"}, "geometry_name": "Republic No. 1 Mine", "id": "Republic No. 1 Mine", "properties": {}, "type": "Feature"}, {"commodity": "Al", "country_code": "US", "geometry": {"coordinates": [-83.15848, 32.86576], "type": "Point"}, "geometry_name": "Mcintyre Mine", "id": "Mcintyre Mine", "properties": {}, "type": "Feature"}, {"commodity": "Al", "country_code": "PE", "geometry": {"coordinates": [-70.49374, -17.38434], "type": "Point"}, "geometry_name": "Chejaya Deposito", "id": "Chejaya Deposito", "properties": {}, "type": "Feature"}, {"commodity": "Al", "country_code": "PA", "geometry": {"coordinates": [-81.64958, 8.29645], "type": "Point"}, "geometry_name": "Tole", "id": "Tole", "properties": {}, "type": "Feature"}, {"commodity": "Al", "country_code": "SR", "geometry": {"coordinates": [-57.30039, 4.6769], "type": "Point"}, "geometry_name": "Wana Weiro Hills", "id": "Wana Weiro Hills", "properties": {}, "type": "Feature"}, {"commodity": "Al", "country_code": "FR", "geometry": {"coordinates": [-53.44087, 3.02782], "type": "Point"}, "geometry_name": "Eau Blanche", "id": "Eau Blanche", "properties": {}, "type": "Feature"}, {"commodity": "Al", "country_code": "HR", "geometry": {"coordinates": [16.11864, 43.91547], "type": "Point"}, "geometry_name": "Obrovac Mine", "id": "Obrovac Mine", "properties": {}, "type": "Feature"}, {"commodity": "Al", "country_code": "GY", "geometry": {"coordinates": [-58.9741, 4.79336], "type": "Point"}, "geometry_name": "Linden Mines", "id": "Linden Mines", "properties": {}, "type": "Feature"}, {"commodity": "Al", "country_code": "FR", "geometry": {"coordinates": [2.55405, 46.56346], "type": "Point"}, "geometry_name": "Union Des Bauxites Mine", "id": "Union Des Bauxites Mine", "properties": {}, "type": "Feature"}, {"commodity": "Al", "country_code": "SR", "geometry": {"coordinates": [-54.15282, 5.58407], "type": "Point"}, "geometry_name": "Red Hills-Last Hill", "id": "Red Hills-Last Hill", "properties": {}, "type": "Feature"}, {"commodity": "Al", "country_code": "KZ", "geometry": {"coordinates": [62.00121, 52.06459], "type": "Point"}, "geometry_name": "Livanovka", "id": "Livanovka", "properties": {}, "type": "Feature"}, {"commodity": "Al", "country_code": "US", "geometry": {"coordinates": [-85.32855, 31.70599], "type": "Point"}, "geometry_name": "Unnamed Deposit", "id": "Unnamed Deposit", "properties": {}, "type": "Feature"}, {"commodity": "Al", "country_code": "GY", "geometry": {"coordinates": [-58.166, 6.00128], "type": "Point"}, "geometry_name": "Mackenzie District", "id": "Mackenzie District", "properties": {}, "type": "Feature"}, {"commodity": "Al", "country_code": "GB", "geometry": {"coordinates": [-6.49752, 55.14909], "type": "Point"}, "geometry_name": "Bauxite - Ireland", "id": "Bauxite - Ireland", "properties": {}, "type": "Feature"}, {"commodity": "Al", "country_code": "US", "geometry": {"coordinates": [-85.17684, 31.73049], "type": "Point"}, "geometry_name": "Unnamed Deposit", "id": "Unnamed Deposit", "properties": {}, "type": "Feature"}, {"commodity": "Al", "country_code": "US", "geometry": {"coordinates": [-84.22351, 32.22798], "type": "Point"}, "geometry_name": "G.W. Holloway Property", "id": "G.W. Holloway Property", "properties": {}, "type": "Feature"}, {"commodity": "Al", "country_code": "DE", "geometry": {"coordinates": [12.11888, 49.33204], "type": "Point"}, "geometry_name": "(Facility) Schwandorf Refinery", "id": "(Facility) Schwandorf Refinery", "properties": {}, "type": "Feature"}, {"commodity": "Al", "country_code": "US", "geometry": {"coordinates": [-112.21884, 38.53386], "type": "Point"}, "geometry_name": "Big Chief  Deposit", "id": "Big Chief  Deposit", "properties": {}, "type": "Feature"}, {"commodity": "Al", "country_code": "TR", "geometry": {"coordinates": [32.01823, 36.54881], "type": "Point"}, "geometry_name": "Bauxite - Turkey", "id": "Bauxite - Turkey", "properties": {}, "type": "Feature"}, {"commodity": "Al", "country_code": "GW", "geometry": {"coordinates": [-11.66528, 11.4341], "type": "Point"}, "geometry_name": "Tougue", "id": "Tougue", "properties": {}, "type": "Feature"}, {"commodity": "Al", "country_code": "AU", "geometry": {"coordinates": [116.08262, -33.16268], "type": "Point"}, "geometry_name": "Worsley", "id": "Worsley", "properties": {}, "type": "Feature"}, {"commodity": "Al", "country_code": "US", "geometry": {"coordinates": [-107.55699, 33.43621], "type": "Point"}, "geometry_name": "Jaun Peak", "id": "Jaun Peak", "properties": {}, "type": "Feature"}, {"commodity": "Al", "country_code": "IN", "geometry": {"coordinates": [83.48355, 19.1664], "type": "Point"}, "geometry_name": "Rayagado", "id": "Rayagado", "properties": {}, "type": "Feature"}, {"commodity": "Al", "country_code": "FR", "geometry": {"coordinates": [6.55202, 44.78222], "type": "Point"}, "geometry_name": "L'Argentiere", "id": "L'Argentiere", "properties": {}, "type": "Feature"}, {"commodity": "Al", "country_code": "US", "geometry": {"coordinates": [-84.05661, 32.18238], "type": "Point"}, "geometry_name": "Prospect", "id": "Prospect", "properties": {}, "type": "Feature"}, {"commodity": "Al", "country_code": "US", "geometry": {"coordinates": [-112.7348, 46.50429], "type": "Point"}, "geometry_name": "Unnamed", "id": "Unnamed", "properties": {}, "type": "Feature"}, {"commodity": "Al", "country_code": "US", "geometry": {"coordinates": [-85.44525, 34.04324], "type": "Point"}, "geometry_name": "Pittman Prospect", "id": "Pittman Prospect", "properties": {}, "type": "Feature"}, {"commodity": "Al", "country_code": "US", "geometry": {"coordinates": [-85.45325, 34.06324], "type": "Point"}, "geometry_name": "Klondike Mine", "id": "Klondike Mine", "properties": {}, "type": "Feature"}, {"commodity": "Al", "country_code": "US", "geometry": {"coordinates": [-85.04274, 34.32233], "type": "Point"}, "geometry_name": "New Holland Pit", "id": "New Holland Pit", "properties": {}, "type": "Feature"}, {"commodity": "Al", "country_code": "CN", "geometry": {"coordinates": [102.9997, 35.99842], "type": "Point"}, "geometry_name": "(Facility) Lanzhou Aluminum Smelter", "id": "(Facility) Lanzhou Aluminum Smelter", "properties": {}, "type": "Feature"}, {"commodity": "Al", "country_code": "IN", "geometry": {"coordinates": [77.85038, 11.8837], "type": "Point"}, "geometry_name": "(Facility) Mettur Refinery", "id": "(Facility) Mettur Refinery", "properties": {}, "type": "Feature"}, {"commodity": "Al", "country_code": "US", "geometry": {"coordinates": [-117.50669, 48.02235], "type": "Point"}, "geometry_name": "Deer Park", "id": "Deer Park", "properties": {}, "type": "Feature"}, {"commodity": "Al", "country_code": "US", "geometry": {"coordinates": [-109.04647, 32.83067], "type": "Point"}, "geometry_name": "Goat Camp Canyon", "id": "Goat Camp Canyon", "properties": {}, "type": "Feature"}, {"commodity": "Al", "country_code": "AU", "geometry": {"coordinates": [122.17743, -25.46243], "type": "Point"}, "geometry_name": "Sawyer's Valley", "id": "Sawyer's Valley", "properties": {}, "type": "Feature"}, {"commodity": "Al", "country_code": "US", "geometry": {"coordinates": [-114.32519, 33.62696], "type": "Point"}, "geometry_name": "Sugarloaf Peak", "id": "Sugarloaf Peak", "properties": {}, "type": "Feature"}, {"commodity": "Al", "country_code": "US", "geometry": {"coordinates": [-80.8409, 39.66893], "type": "Point"}, "geometry_name": "Ormet Aluminum Plant", "id": "Ormet Aluminum Plant", "properties": {}, "type": "Feature"}, {"commodity": "Al", "country_code": "US", "geometry": {"coordinates": [-89.20316, 34.21433], "type": "Point"}, "geometry_name": "John Wiley Tutor Prospect", "id": "John Wiley Tutor Prospect", "properties": {}, "type": "Feature"}, {"commodity": "Al", "country_code": "US", "geometry": {"coordinates": [-77.61357, 43.15419], "type": "Point"}, "geometry_name": "Rochester Smelt & Ref/Rochester, Ny", "id": "Rochester Smelt & Ref/Rochester, Ny", "properties": {}, "type": "Feature"}, {"commodity": "Al", "country_code": "AU", "geometry": {"coordinates": [116.09932, -32.92932], "type": "Point"}, "geometry_name": "Mount Saddleback", "id": "Mount Saddleback", "properties": {}, "type": "Feature"}, {"commodity": "Al", "country_code": "US", "geometry": {"coordinates": [-89.20476, 34.21453], "type": "Point"}, "geometry_name": "J.W. Tutor Property", "id": "J.W. Tutor Property", "properties": {}, "type": "Feature"}, {"commodity": "Al", "country_code": "US", "geometry": {"coordinates": [-112.45147, 45.1655], "type": "Point"}, "geometry_name": "Unnamed Deposits", "id": "Unnamed Deposits", "properties": {}, "type": "Feature"}, {"commodity": "Al", "country_code": "US", "geometry": {"coordinates": [-85.30805, 31.73659], "type": "Point"}, "geometry_name": "Unnamed Deposit", "id": "Unnamed Deposit", "properties": {}, "type": "Feature"}, {"commodity": "Al", "country_code": "US", "geometry": {"coordinates": [-85.25024, 31.73769], "type": "Point"}, "geometry_name": "Bauxite Mine", "id": "Bauxite Mine", "properties": {}, "type": "Feature"}, {"commodity": "Al", "country_code": "US", "geometry": {"coordinates": [-85.18774, 31.72239], "type": "Point"}, "geometry_name": "Unnamed Deposit", "id": "Unnamed Deposit", "properties": {}, "type": "Feature"}, {"commodity": "Al", "country_code": "US", "geometry": {"coordinates": [-85.18414, 31.67879], "type": "Point"}, "geometry_name": "Bauxite Mine", "id": "Bauxite Mine", "properties": {}, "type": "Feature"}, {"commodity": "Fe", "country_code": "AU", "geometry": {"coordinates": [119.83971, -22.09884], "type": "Point"}, "geometry_name": "Coongan 2", "id": "Coongan 2", "properties": {}, "type": "Feature"}, {"commodity": "Au", "country_code": "AU", "geometry": {"coordinates": [120.680603, -26.416019], "type": "Point"}, "geometry_name": "Elliot", "id": "Elliot", "properties": {}, "type": "Feature"}, {"commodity": "Zn", "country_code": "AU", "geometry": {"coordinates": [118.672282, -28.745388], "type": "Point"}, "geometry_name": "Kowari", "id": "Kowari", "properties": {}, "type": "Feature"}, {"commodity": "Pb", "country_code": "AU", "geometry": {"coordinates": [122.258499, -21.792101], "type": "Point"}, "geometry_name": "O'Callaghans", "id": "O'Callaghans", "properties": {}, "type": "Feature"}, {"commodity": "Pb", "country_code": "AU", "geometry": {"coordinates": [119.211954, -21.146509], "type": "Point"}, "geometry_name": "Mine Portal", "id": "Mine Portal", "properties": {}, "type": "Feature"}, {"commodity": "Fe", "country_code": "AU", "geometry": {"coordinates": [118.962601, -22.92985], "type": "Point"}, "geometry_name": "MAC Group", "id": "MAC Group", "properties": {}, "type": "Feature"}, {"commodity": "Fe", "country_code": "AU", "geometry": {"coordinates": [119.6754, -23.36536], "type": "Point"}, "geometry_name": "Newman Group", "id": "Newman Group", "properties": {}, "type": "Feature"}, {"commodity": "Cu", "country_code": "AU", "geometry": {"coordinates": [116.379426, -28.669106], "type": "Point"}, "geometry_name": "Deflector Resopurce Gp", "id": "Deflector Resopurce Gp", "properties": {}, "type": "Feature"}, {"commodity": "Zn", "country_code": "AU", "geometry": {"coordinates": [119.211954, -21.146509], "type": "Point"}, "geometry_name": "Mine Portal", "id": "Mine Portal", "properties": {}, "type": "Feature"}, {"commodity": "Au", "country_code": "AU", "geometry": {"coordinates": [116.964192, -28.776865], "type": "Point"}, "geometry_name": "Gossan Hill U/G", "id": "Gossan Hill U/G", "properties": {}, "type": "Feature"}, {"commodity": "Fe", "country_code": "AU", "geometry": {"coordinates": [116.242203, -21.750059], "type": "Point"}, "geometry_name": "Robe R Gp", "id": "Robe R Gp", "properties": {}, "type": "Feature"}, {"commodity": "Fe", "country_code": "AU", "geometry": {"coordinates": [119.6754, -23.36536], "type": "Point"}, "geometry_name": "Newman Group", "id": "Newman Group", "properties": {}, "type": "Feature"}, {"commodity": "Pb", "country_code": "AU", "geometry": {"coordinates": [119.211954, -21.146509], "type": "Point"}, "geometry_name": "Mine Portal", "id": "Mine Portal", "properties": {}, "type": "Feature"}, {"commodity": "Pb", "country_code": "AU", "geometry": {"coordinates": [128.98091, -15.46078], "type": "Point"}, "geometry_name": "Sorby Pod C", "id": "Sorby Pod C", "properties": {}, "type": "Feature"}, {"commodity": "Cu", "country_code": "AU", "geometry": {"coordinates": [119.211954, -21.146509], "type": "Point"}, "geometry_name": "Mine Portal", "id": "Mine Portal", "properties": {}, "type": "Feature"}, {"commodity": "Fe", "country_code": "AU", "geometry": {"coordinates": [120.1371, -23.380329], "type": "Point"}, "geometry_name": "Jimblebar Hub", "id": "Jimblebar Hub", "properties": {}, "type": "Feature"}, {"commodity": "Pb", "country_code": "AU", "geometry": {"coordinates": [116.964192, -28.776865], "type": "Point"}, "geometry_name": "Golden Grove Gp", "id": "Golden Grove Gp", "properties": {}, "type": "Feature"}, {"commodity": "Au", "country_code": "AU", "geometry": {"coordinates": [116.964192, -28.776865], "type": "Point"}, "geometry_name": "Golden Grove Gp", "id": "Golden Grove Gp", "properties": {}, "type": "Feature"}, {"commodity": "Au", "country_code": "AU", "geometry": {"coordinates": [121.263996, -30.749657], "type": "Point"}, "geometry_name": "Hornet", "id": "Hornet", "properties": {}, "type": "Feature"}, {"commodity": "Ni", "country_code": "AU", "geometry": {"coordinates": [121.842903, -31.505461], "type": "Point"}, "geometry_name": "Lanfranchi Group", "id": "Lanfranchi Group", "properties": {}, "type": "Feature"}, {"commodity": "Cu", "country_code": "AU", "geometry": {"coordinates": [116.964192, -28.776865], "type": "Point"}, "geometry_name": "Golden Grove Gp", "id": "Golden Grove Gp", "properties": {}, "type": "Feature"}, {"commodity": "Au", "country_code": "AU", "geometry": {"coordinates": [120.208397, -33.754559], "type": "Point"}, "geometry_name": "Trilogy", "id": "Trilogy", "properties": {}, "type": "Feature"}, {"commodity": "Fe", "country_code": "AU", "geometry": {"coordinates": [119.849593, -22.379427], "type": "Point"}, "geometry_name": "Resources Group", "id": "Resources Group", "properties": {}, "type": "Feature"}, {"commodity": "Ni", "country_code": "AU", "geometry": {"coordinates": [120.705597, -27.818119], "type": "Point"}, "geometry_name": "Leinster", "id": "Leinster", "properties": {}, "type": "Feature"}, {"commodity": "Cu", "country_code": "AU", "geometry": {"coordinates": [122.210899, -21.722401], "type": "Point"}, "geometry_name": "Telfer Pit", "id": "Telfer Pit", "properties": {}, "type": "Feature"}, {"commodity": "Cu", "country_code": "AU", "geometry": {"coordinates": [127.831596, -17.75153], "type": "Point"}, "geometry_name": "Panton", "id": "Panton", "properties": {}, "type": "Feature"}, {"commodity": "Fe", "country_code": "AU", "geometry": {"coordinates": [120.1371, -23.380329], "type": "Point"}, "geometry_name": "Jimblebar Hub", "id": "Jimblebar Hub", "properties": {}, "type": "Feature"}, {"commodity": "Fe", "country_code": "AU", "geometry": {"coordinates": [119.550051, -30.842675], "type": "Point"}, "geometry_name": "Koolyanobbing C", "id": "Koolyanobbing C", "properties": {}, "type": "Feature"}, {"commodity": "Ni", "country_code": "AU", "geometry": {"coordinates": [127.831596, -17.75153], "type": "Point"}, "geometry_name": "Panton", "id": "Panton", "properties": {}, "type": "Feature"}, {"commodity": "Zn", "country_code": "AU", "geometry": {"coordinates": [116.964192, -28.776865], "type": "Point"}, "geometry_name": "Golden Grove Gp", "id": "Golden Grove Gp", "properties": {}, "type": "Feature"}, {"commodity": "Zn", "country_code": "AU", "geometry": {"coordinates": [116.964192, -28.776865], "type": "Point"}, "geometry_name": "Golden Grove Gp", "id": "Golden Grove Gp", "properties": {}, "type": "Feature"}, {"commodity": "Fe", "country_code": "AU", "geometry": {"coordinates": [119.849593, -22.379427], "type": "Point"}, "geometry_name": "Resources Group", "id": "Resources Group", "properties": {}, "type": "Feature"}, {"commodity": "Au", "country_code": "AU", "geometry": {"coordinates": [116.964192, -28.776865], "type": "Point"}, "geometry_name": "Golden Grove Gp", "id": "Golden Grove Gp", "properties": {}, "type": "Feature"}, {"commodity": "Au", "country_code": "AU", "geometry": {"coordinates": [117.181661, -29.720654], "type": "Point"}, "geometry_name": "Hornet UG", "id": "Hornet UG", "properties": {}, "type": "Feature"}, {"commodity": "Fe", "country_code": "AU", "geometry": {"coordinates": [123.554641, -16.094373], "type": "Point"}, "geometry_name": "Hardstaff Point", "id": "Hardstaff Point", "properties": {}, "type": "Feature"}, {"commodity": "Pt", "country_code": "AU", "geometry": {"coordinates": [127.831596, -17.75153], "type": "Point"}, "geometry_name": "Panton", "id": "Panton", "properties": {}, "type": "Feature"}, {"commodity": "Fe", "country_code": "AU", "geometry": {"coordinates": [123.554641, -16.094373], "type": "Point"}, "geometry_name": "Hardstaff Point", "id": "Hardstaff Point", "properties": {}, "type": "Feature"}, {"commodity": "Fe", "country_code": "AU", "geometry": {"coordinates": [120.1371, -23.380329], "type": "Point"}, "geometry_name": "Jimblebar Hub", "id": "Jimblebar Hub", "properties": {}, "type": "Feature"}, {"commodity": "Zn", "country_code": "AU", "geometry": {"coordinates": [119.211954, -21.146509], "type": "Point"}, "geometry_name": "Mine Portal", "id": "Mine Portal", "properties": {}, "type": "Feature"}, {"commodity": "Cu", "country_code": "AU", "geometry": {"coordinates": [119.211954, -21.146509], "type": "Point"}, "geometry_name": "Mine Portal", "id": "Mine Portal", "properties": {}, "type": "Feature"}, {"commodity": "Au", "country_code": "AU", "geometry": {"coordinates": [116.964192, -28.776865], "type": "Point"}, "geometry_name": "Golden Grove Gp", "id": "Golden Grove Gp", "properties": {}, "type": "Feature"}, {"commodity": "Fe", "country_code": "AU", "geometry": {"coordinates": [115.620499, -28.11491], "type": "Point"}, "geometry_name": "T6B", "id": "T6B", "properties": {}, "type": "Feature"}, {"commodity": "Zn", "country_code": "AU", "geometry": {"coordinates": [116.964192, -28.776865], "type": "Point"}, "geometry_name": "Golden Grove Gp", "id": "Golden Grove Gp", "properties": {}, "type": "Feature"}, {"commodity": "Pb", "country_code": "AU", "geometry": {"coordinates": [121.155098, -28.444611], "type": "Point"}, "geometry_name": "Jaguar", "id": "Jaguar", "properties": {}, "type": "Feature"}, {"commodity": "Au", "country_code": "AU", "geometry": {"coordinates": [122.210899, -21.722401], "type": "Point"}, "geometry_name": "Main Dome", "id": "Main Dome", "properties": {}, "type": "Feature"}, {"commodity": "Fe", "country_code": "AU", "geometry": {"coordinates": [118.962601, -22.92985], "type": "Point"}, "geometry_name": "MAC Group", "id": "MAC Group", "properties": {}, "type": "Feature"}, {"commodity": "Zn", "country_code": "AU", "geometry": {"coordinates": [119.211954, -21.146509], "type": "Point"}, "geometry_name": "Mine Portal", "id": "Mine Portal", "properties": {}, "type": "Feature"}, {"commodity": "Au", "country_code": "AU", "geometry": {"coordinates": [119.328132, -25.540623], "type": "Point"}, "geometry_name": "DeGrussa Resource Gp", "id": "DeGrussa Resource Gp", "properties": {}, "type": "Feature"}, {"commodity": "Au", "country_code": "AU", "geometry": {"coordinates": [121.798698, -32.197948], "type": "Point"}, "geometry_name": "Bullen", "id": "Bullen", "properties": {}, "type": "Feature"}, {"commodity": "Fe", "country_code": "AU", "geometry": {"coordinates": [117.607108, -26.953052], "type": "Point"}, "geometry_name": "W14", "id": "W14", "properties": {}, "type": "Feature"}, {"commodity": "Cu", "country_code": "AU", "geometry": {"coordinates": [119.211954, -21.146509], "type": "Point"}, "geometry_name": "Mine Portal", "id": "Mine Portal", "properties": {}, "type": "Feature"}, {"commodity": "Cu", "country_code": "AU", "geometry": {"coordinates": [122.210899, -21.722401], "type": "Point"}, "geometry_name": "Main Dome", "id": "Main Dome", "properties": {}, "type": "Feature"}, {"commodity": "Au", "country_code": "AU", "geometry": {"coordinates": [116.964192, -28.776865], "type": "Point"}, "geometry_name": "Golden Grove Gp", "id": "Golden Grove Gp", "properties": {}, "type": "Feature"}, {"commodity": "Ni", "country_code": "AU", "geometry": {"coordinates": [121.678449, -31.17776], "type": "Point"}, "geometry_name": "Long Shaft", "id": "Long Shaft", "properties": {}, "type": "Feature"}, {"commodity": "Cu", "country_code": "AU", "geometry": {"coordinates": [118.585899, -24.6444], "type": "Point"}, "geometry_name": "Abra", "id": "Abra", "properties": {}, "type": "Feature"}, {"commodity": "Cu", "country_code": "AU", "geometry": {"coordinates": [122.210899, -21.722401], "type": "Point"}, "geometry_name": "Telfer Pit", "id": "Telfer Pit", "properties": {}, "type": "Feature"}, {"commodity": "Fe", "country_code": "AU", "geometry": {"coordinates": [119.6754, -23.36536], "type": "Point"}, "geometry_name": "Newman Group", "id": "Newman Group", "properties": {}, "type": "Feature"}, {"commodity": "Fe", "country_code": "AU", "geometry": {"coordinates": [118.661169, -21.206855], "type": "Point"}, "geometry_name": "Wodgina Iron Res Gp", "id": "Wodgina Iron Res Gp", "properties": {}, "type": "Feature"}, {"commodity": "Cu", "country_code": "AU", "geometry": {"coordinates": [127.831596, -17.75153], "type": "Point"}, "geometry_name": "Panton", "id": "Panton", "properties": {}, "type": "Feature"}, {"commodity": "Au", "country_code": "AU", "geometry": {"coordinates": [127.831596, -17.75153], "type": "Point"}, "geometry_name": "Panton", "id": "Panton", "properties": {}, "type": "Feature"}, {"commodity": "Cu", "country_code": "AU", "geometry": {"coordinates": [116.379426, -28.669106], "type": "Point"}, "geometry_name": "Deflector Resopurce Gp", "id": "Deflector Resopurce Gp", "properties": {}, "type": "Feature"}, {"commodity": "Fe", "country_code": "AU", "geometry": {"coordinates": [119.6754, -23.36536], "type": "Point"}, "geometry_name": "Newman Group", "id": "Newman Group", "properties": {}, "type": "Feature"}, {"commodity": "Fe", "country_code": "AU", "geometry": {"coordinates": [123.554641, -16.094373], "type": "Point"}, "geometry_name": "Hardstaff Point", "id": "Hardstaff Point", "properties": {}, "type": "Feature"}, {"commodity": "Au", "country_code": "AU", "geometry": {"coordinates": [127.831596, -17.75153], "type": "Point"}, "geometry_name": "Panton", "id": "Panton", "properties": {}, "type": "Feature"}, {"commodity": "Cu", "country_code": "AU", "geometry": {"coordinates": [121.155098, -28.444611], "type": "Point"}, "geometry_name": "Jaguar", "id": "Jaguar", "properties": {}, "type": "Feature"}, {"commodity": "Au", "country_code": "AU", "geometry": {"coordinates": [127.356697, -18.409611], "type": "Point"}, "geometry_name": "Nicolsons Find", "id": "Nicolsons Find", "properties": {}, "type": "Feature"}, {"commodity": "Zn", "country_code": "AU", "geometry": {"coordinates": [116.964192, -28.776865], "type": "Point"}, "geometry_name": "Golden Grove Gp", "id": "Golden Grove Gp", "properties": {}, "type": "Feature"}, {"commodity": "Au", "country_code": "AU", "geometry": {"coordinates": [119.712799, -25.1653], "type": "Point"}, "geometry_name": "Cinnamon", "id": "Cinnamon", "properties": {}, "type": "Feature"}, {"commodity": "Au", "country_code": "AU", "geometry": {"coordinates": [116.379426, -28.669106], "type": "Point"}, "geometry_name": "Deflector Resopurce Gp", "id": "Deflector Resopurce Gp", "properties": {}, "type": "Feature"}, {"commodity": "Au", "country_code": "AU", "geometry": {"coordinates": [122.580299, -31.21701], "type": "Point"}, "geometry_name": "Italia", "id": "Italia", "properties": {}, "type": "Feature"}, {"commodity": "Au", "country_code": "AU", "geometry": {"coordinates": [116.379426, -28.669106], "type": "Point"}, "geometry_name": "Deflector", "id": "Deflector", "properties": {}, "type": "Feature"}, {"commodity": "Fe", "country_code": "AU", "geometry": {"coordinates": [119.6754, -23.36536], "type": "Point"}, "geometry_name": "Newman Group", "id": "Newman Group", "properties": {}, "type": "Feature"}, {"commodity": "Au", "country_code": "AU", "geometry": {"coordinates": [119.549797, -31.509541], "type": "Point"}, "geometry_name": "Anomaly 22", "id": "Anomaly 22", "properties": {}, "type": "Feature"}, {"commodity": "Ni", "country_code": "AU", "geometry": {"coordinates": [121.689536, -31.198129], "type": "Point"}, "geometry_name": "Victor South", "id": "Victor South", "properties": {}, "type": "Feature"}, {"commodity": "Cu", "country_code": "AU", "geometry": {"coordinates": [120.208397, -33.754559], "type": "Point"}, "geometry_name": "Trilogy", "id": "Trilogy", "properties": {}, "type": "Feature"}, {"commodity": "Cu", "country_code": "AU", "geometry": {"coordinates": [121.155098, -28.444611], "type": "Point"}, "geometry_name": "Jaguar", "id": "Jaguar", "properties": {}, "type": "Feature"}, {"commodity": "Au", "country_code": "AU", "geometry": {"coordinates": [116.379426, -28.669106], "type": "Point"}, "geometry_name": "Deflector", "id": "Deflector", "properties": {}, "type": "Feature"}, {"commodity": "Fe", "country_code": "AU", "geometry": {"coordinates": [120.1371, -23.380329], "type": "Point"}, "geometry_name": "Jimblebar Hub", "id": "Jimblebar Hub", "properties": {}, "type": "Feature"}, {"commodity": "Fe", "country_code": "AU", "geometry": {"coordinates": [118.962601, -22.92985], "type": "Point"}, "geometry_name": "MAC Group", "id": "MAC Group", "properties": {}, "type": "Feature"}, {"commodity": "Cu", "country_code": "AU", "geometry": {"coordinates": [116.357519, -32.753078], "type": "Point"}, "geometry_name": "BE South", "id": "BE South", "properties": {}, "type": "Feature"}, {"commodity": "Cu", "country_code": "AU", "geometry": {"coordinates": [127.831596, -17.75153], "type": "Point"}, "geometry_name": "Panton", "id": "Panton", "properties": {}, "type": "Feature"}, {"commodity": "Cu", "country_code": "AU", "geometry": {"coordinates": [127.831596, -17.75153], "type": "Point"}, "geometry_name": "Panton", "id": "Panton", "properties": {}, "type": "Feature"}, {"commodity": "Au", "country_code": "AU", "geometry": {"coordinates": [122.210899, -21.722401], "type": "Point"}, "geometry_name": "Main Dome", "id": "Main Dome", "properties": {}, "type": "Feature"}, {"commodity": "Ni", "country_code": "AU", "geometry": {"coordinates": [121.689536, -31.198129], "type": "Point"}, "geometry_name": "Victor South", "id": "Victor South", "properties": {}, "type": "Feature"}, {"commodity": "Au", "country_code": "AU", "geometry": {"coordinates": [121.263996, -30.749657], "type": "Point"}, "geometry_name": "Hornet", "id": "Hornet", "properties": {}, "type": "Feature"}, {"commodity": "Au", "country_code": "AU", "geometry": {"coordinates": [127.815399, -18.34729], "type": "Point"}, "geometry_name": "Palm Springs", "id": "Palm Springs", "properties": {}, "type": "Feature"}, {"commodity": "Ni", "country_code": "AU", "geometry": {"coordinates": [127.831596, -17.75153], "type": "Point"}, "geometry_name": "Panton", "id": "Panton", "properties": {}, "type": "Feature"}, {"commodity": "Fe", "country_code": "AU", "geometry": {"coordinates": [115.620499, -28.11491], "type": "Point"}, "geometry_name": "T6B", "id": "T6B", "properties": {}, "type": "Feature"}, {"commodity": "Pb", "country_code": "AU", "geometry": {"coordinates": [116.964192, -28.776865], "type": "Point"}, "geometry_name": "Golden Grove Gp", "id": "Golden Grove Gp", "properties": {}, "type": "Feature"}, {"commodity": "Fe", "country_code": "AU", "geometry": {"coordinates": [119.937302, -26.680361], "type": "Point"}, "geometry_name": "C4", "id": "C4", "properties": {}, "type": "Feature"}, {"commodity": "Pb", "country_code": "AU", "geometry": {"coordinates": [121.169987, -28.483949], "type": "Point"}, "geometry_name": "Bentley", "id": "Bentley", "properties": {}, "type": "Feature"}, {"commodity": "Fe", "country_code": "AU", "geometry": {"coordinates": [119.105797, -21.14382], "type": "Point"}, "geometry_name": "Resources Group", "id": "Resources Group", "properties": {}, "type": "Feature"}, {"commodity": "Cu", "country_code": "AU", "geometry": {"coordinates": [120.1045, -20.88829], "type": "Point"}, "geometry_name": "Spinifex Ridge", "id": "Spinifex Ridge", "properties": {}, "type": "Feature"}, {"commodity": "Au", "country_code": "AU", "geometry": {"coordinates": [121.599503, -30.59425], "type": "Point"}, "geometry_name": "Ballarat - Last Chance", "id": "Ballarat - Last Chance", "properties": {}, "type": "Feature"}, {"commodity": "Au", "country_code": "AU", "geometry": {"coordinates": [122.210899, -21.722401], "type": "Point"}, "geometry_name": "Main Dome", "id": "Main Dome", "properties": {}, "type": "Feature"}, {"commodity": "Pb", "country_code": "AU", "geometry": {"coordinates": [119.211954, -21.146509], "type": "Point"}, "geometry_name": "Mine Portal", "id": "Mine Portal", "properties": {}, "type": "Feature"}, {"commodity": "Au", "country_code": "AU", "geometry": {"coordinates": [127.831596, -17.75153], "type": "Point"}, "geometry_name": "Panton", "id": "Panton", "properties": {}, "type": "Feature"}, {"commodity": "Au", "country_code": "AU", "geometry": {"coordinates": [116.964192, -28.776865], "type": "Point"}, "geometry_name": "Gossan Hill U/G", "id": "Gossan Hill U/G", "properties": {}, "type": "Feature"}, {"commodity": "Fe", "country_code": "AU", "geometry": {"coordinates": [120.1371, -23.380329], "type": "Point"}, "geometry_name": "Jimblebar Hub", "id": "Jimblebar Hub", "properties": {}, "type": "Feature"}, {"commodity": "Fe", "country_code": "AU", "geometry": {"coordinates": [119.6754, -23.36536], "type": "Point"}, "geometry_name": "Newman Group", "id": "Newman Group", "properties": {}, "type": "Feature"}, {"commodity": "Cu", "country_code": "AU", "geometry": {"coordinates": [116.964192, -28.776865], "type": "Point"}, "geometry_name": "Golden Grove Gp", "id": "Golden Grove Gp", "properties": {}, "type": "Feature"}, {"commodity": "Au", "country_code": "AU", "geometry": {"coordinates": [116.379426, -28.669106], "type": "Point"}, "geometry_name": "Deflector Resopurce Gp", "id": "Deflector Resopurce Gp", "properties": {}, "type": "Feature"}, {"commodity": "Fe", "country_code": "AU", "geometry": {"coordinates": [121.244227, -21.631369], "type": "Point"}, "geometry_name": "Woodie Woodie Group", "id": "Woodie Woodie Group", "properties": {}, "type": "Feature"}, {"commodity": "Pb", "country_code": "AU", "geometry": {"coordinates": [116.964192, -28.776865], "type": "Point"}, "geometry_name": "Golden Grove Gp", "id": "Golden Grove Gp", "properties": {}, "type": "Feature"}, {"commodity": "Zn", "country_code": "AU", "geometry": {"coordinates": [119.211954, -21.146509], "type": "Point"}, "geometry_name": "Mine Portal", "id": "Mine Portal", "properties": {}, "type": "Feature"}, {"commodity": "Fe", "country_code": "AU", "geometry": {"coordinates": [116.336662, -22.354352], "type": "Point"}, "geometry_name": "Trinity Bore Iron", "id": "Trinity Bore Iron", "properties": {}, "type": "Feature"}, {"commodity": "Au", "country_code": "AU", "geometry": {"coordinates": [121.374901, -29.19866], "type": "Point"}, "geometry_name": "Clarke", "id": "Clarke", "properties": {}, "type": "Feature"}, {"commodity": "Au", "country_code": "AU", "geometry": {"coordinates": [116.379426, -28.669106], "type": "Point"}, "geometry_name": "Deflector", "id": "Deflector", "properties": {}, "type": "Feature"}, {"commodity": "Fe", "country_code": "AU", "geometry": {"coordinates": [118.962601, -22.92985], "type": "Point"}, "geometry_name": "MAC Group", "id": "MAC Group", "properties": {}, "type": "Feature"}, {"commodity": "Pb", "country_code": "AU", "geometry": {"coordinates": [119.211954, -21.146509], "type": "Point"}, "geometry_name": "Mine Portal", "id": "Mine Portal", "properties": {}, "type": "Feature"}, {"commodity": "Pt", "country_code": "AU", "geometry": {"coordinates": [127.831596, -17.75153], "type": "Point"}, "geometry_name": "Panton", "id": "Panton", "properties": {}, "type": "Feature"}, {"commodity": "Ni", "country_code": "AU", "geometry": {"coordinates": [121.890682, -28.801679], "type": "Point"}, "geometry_name": "Murrin Murrin", "id": "Murrin Murrin", "properties": {}, "type": "Feature"}, {"commodity": "Fe", "country_code": "AU", "geometry": {"coordinates": [119.554332, -31.618651], "type": "Point"}, "geometry_name": "Mt Caudan", "id": "Mt Caudan", "properties": {}, "type": "Feature"}, {"commodity": "Au", "country_code": "AU", "geometry": {"coordinates": [119.492599, -31.464569], "type": "Point"}, "geometry_name": "Marvel Loch", "id": "Marvel Loch", "properties": {}, "type": "Feature"}, {"commodity": "Cu", "country_code": "AU", "geometry": {"coordinates": [116.964192, -28.776865], "type": "Point"}, "geometry_name": "Gossan Hill U/G", "id": "Gossan Hill U/G", "properties": {}, "type": "Feature"}, {"commodity": "Mn", "country_code": "AU", "geometry": {"coordinates": [119.554332, -31.618651], "type": "Point"}, "geometry_name": "Mt Caudan", "id": "Mt Caudan", "properties": {}, "type": "Feature"}, {"commodity": "Au", "country_code": "AU", "geometry": {"coordinates": [121.223602, -30.70137], "type": "Point"}, "geometry_name": "Gabbro Hill", "id": "Gabbro Hill", "properties": {}, "type": "Feature"}, {"commodity": "Fe", "country_code": "AU", "geometry": {"coordinates": [120.666496, -23.551399], "type": "Point"}, "geometry_name": "King Brown", "id": "King Brown", "properties": {}, "type": "Feature"}, {"commodity": "Cu", "country_code": "AU", "geometry": {"coordinates": [119.211954, -21.146509], "type": "Point"}, "geometry_name": "Mine Portal", "id": "Mine Portal", "properties": {}, "type": "Feature"}, {"commodity": "Cu", "country_code": "AU", "geometry": {"coordinates": [120.039001, -33.57671], "type": "Point"}, "geometry_name": "Marion Martin", "id": "Marion Martin", "properties": {}, "type": "Feature"}, {"commodity": "Fe", "country_code": "AU", "geometry": {"coordinates": [119.6754, -23.36536], "type": "Point"}, "geometry_name": "Newman Group", "id": "Newman Group", "properties": {}, "type": "Feature"}, {"commodity": "Fe", "country_code": "AU", "geometry": {"coordinates": [115.596703, -28.1154], "type": "Point"}, "geometry_name": "T5", "id": "T5", "properties": {}, "type": "Feature"}, {"commodity": "Cu", "country_code": "AU", "geometry": {"coordinates": [116.379426, -28.669106], "type": "Point"}, "geometry_name": "Deflector Resopurce Gp", "id": "Deflector Resopurce Gp", "properties": {}, "type": "Feature"}, {"commodity": "Au", "country_code": "AU", "geometry": {"coordinates": [121.9245, -29.489519], "type": "Point"}, "geometry_name": "Bull Terrier", "id": "Bull Terrier", "properties": {}, "type": "Feature"}, {"commodity": "Mn", "country_code": "AU", "geometry": {"coordinates": [116.22877, -22.193978], "type": "Point"}, "geometry_name": "Cardo Bore E", "id": "Cardo Bore E", "properties": {}, "type": "Feature"}, {"commodity": "Fe", "country_code": "AU", "geometry": {"coordinates": [120.48004, -23.420302], "type": "Point"}, "geometry_name": "Resources Group", "id": "Resources Group", "properties": {}, "type": "Feature"}, {"commodity": "Au", "country_code": "AU", "geometry": {"coordinates": [116.964192, -28.776865], "type": "Point"}, "geometry_name": "Golden Grove Gp", "id": "Golden Grove Gp", "properties": {}, "type": "Feature"}, {"commodity": "Cu", "country_code": "AU", "geometry": {"coordinates": [116.357519, -32.753078], "type": "Point"}, "geometry_name": "BE South", "id": "BE South", "properties": {}, "type": "Feature"}, {"commodity": "Au", "country_code": "AU", "geometry": {"coordinates": [117.181661, -29.720654], "type": "Point"}, "geometry_name": "Hornet UG", "id": "Hornet UG", "properties": {}, "type": "Feature"}, {"commodity": "Fe", "country_code": "AU", "geometry": {"coordinates": [119.6754, -23.36536], "type": "Point"}, "geometry_name": "Newman Group", "id": "Newman Group", "properties": {}, "type": "Feature"}, {"commodity": "Fe", "country_code": "AU", "geometry": {"coordinates": [119.249702, -23.434219], "type": "Point"}, "geometry_name": "Prairie Downs", "id": "Prairie Downs", "properties": {}, "type": "Feature"}, {"commodity": "Mn", "country_code": "AU", "geometry": {"coordinates": [120.48004, -23.420302], "type": "Point"}, "geometry_name": "Python", "id": "Python", "properties": {}, "type": "Feature"}, {"commodity": "Pb", "country_code": "AU", "geometry": {"coordinates": [119.211954, -21.146509], "type": "Point"}, "geometry_name": "Mine Portal", "id": "Mine Portal", "properties": {}, "type": "Feature"}, {"commodity": "Fe", "country_code": "AU", "geometry": {"coordinates": [119.6754, -23.36536], "type": "Point"}, "geometry_name": "Newman Group", "id": "Newman Group", "properties": {}, "type": "Feature"}, {"commodity": "Au", "country_code": "AU", "geometry": {"coordinates": [121.169987, -28.483949], "type": "Point"}, "geometry_name": "Bentley", "id": "Bentley", "properties": {}, "type": "Feature"}, {"commodity": "Fe", "country_code": "AU", "geometry": {"coordinates": [119.937829, -28.739262], "type": "Point"}, "geometry_name": "Emu South", "id": "Emu South", "properties": {}, "type": "Feature"}, {"commodity": "Fe", "country_code": "AU", "geometry": {"coordinates": [119.6754, -23.36536], "type": "Point"}, "geometry_name": "Newman Group", "id": "Newman Group", "properties": {}, "type": "Feature"}, {"commodity": "Au", "country_code": "AU", "geometry": {"coordinates": [119.482776, -21.173057], "type": "Point"}, "geometry_name": "Surprize Tailings", "id": "Surprize Tailings", "properties": {}, "type": "Feature"}, {"commodity": "Au", "country_code": "AU", "geometry": {"coordinates": [120.680603, -26.416019], "type": "Point"}, "geometry_name": "Elliot", "id": "Elliot", "properties": {}, "type": "Feature"}, {"commodity": "Fe", "country_code": "AU", "geometry": {"coordinates": [119.952677, -28.72131], "type": "Point"}, "geometry_name": "Resources Group", "id": "Resources Group", "properties": {}, "type": "Feature"}, {"commodity": "Ni", "country_code": "AU", "geometry": {"coordinates": [120.705597, -27.818119], "type": "Point"}, "geometry_name": "Leinster", "id": "Leinster", "properties": {}, "type": "Feature"}, {"commodity": "Fe", "country_code": "AU", "geometry": {"coordinates": [119.6754, -23.36536], "type": "Point"}, "geometry_name": "Newman Group", "id": "Newman Group", "properties": {}, "type": "Feature"}, {"commodity": "Au", "country_code": "AU", "geometry": {"coordinates": [116.964192, -28.776865], "type": "Point"}, "geometry_name": "Golden Grove Gp", "id": "Golden Grove Gp", "properties": {}, "type": "Feature"}, {"commodity": "Zn", "country_code": "AU", "geometry": {"coordinates": [119.211954, -21.146509], "type": "Point"}, "geometry_name": "Mine Portal", "id": "Mine Portal", "properties": {}, "type": "Feature"}, {"commodity": "Cu", "country_code": "AU", "geometry": {"coordinates": [119.328132, -25.540623], "type": "Point"}, "geometry_name": "DeGrussa", "id": "DeGrussa", "properties": {}, "type": "Feature"}, {"commodity": "Fe", "country_code": "AU", "geometry": {"coordinates": [119.6754, -23.36536], "type": "Point"}, "geometry_name": "Newman Group", "id": "Newman Group", "properties": {}, "type": "Feature"}, {"commodity": "Au", "country_code": "AU", "geometry": {"coordinates": [121.409698, -30.825821], "type": "Point"}, "geometry_name": "Apache", "id": "Apache", "properties": {}, "type": "Feature"}, {"commodity": "Au", "country_code": "AU", "geometry": {"coordinates": [118.466698, -27.014799], "type": "Point"}, "geometry_name": "Pipeline 1", "id": "Pipeline 1", "properties": {}, "type": "Feature"}, {"commodity": "Ni", "country_code": "AU", "geometry": {"coordinates": [120.705597, -27.818119], "type": "Point"}, "geometry_name": "Leinster", "id": "Leinster", "properties": {}, "type": "Feature"}, {"commodity": "Fe", "country_code": "AU", "geometry": {"coordinates": [119.6754, -23.36536], "type": "Point"}, "geometry_name": "Newman Group", "id": "Newman Group", "properties": {}, "type": "Feature"}, {"commodity": "Au", "country_code": "AU", "geometry": {"coordinates": [119.492599, -31.464569], "type": "Point"}, "geometry_name": "Marvel Loch", "id": "Marvel Loch", "properties": {}, "type": "Feature"}, {"commodity": "Pb", "country_code": "AU", "geometry": {"coordinates": [118.585899, -24.6444], "type": "Point"}, "geometry_name": "Abra", "id": "Abra", "properties": {}, "type": "Feature"}, {"commodity": "Au", "country_code": "AU", "geometry": {"coordinates": [119.492599, -31.464569], "type": "Point"}, "geometry_name": "Marvel Loch", "id": "Marvel Loch", "properties": {}, "type": "Feature"}, {"commodity": "Ni", "country_code": "AU", "geometry": {"coordinates": [120.705597, -27.818119], "type": "Point"}, "geometry_name": "Leinster", "id": "Leinster", "properties": {}, "type": "Feature"}, {"commodity": "Cu", "country_code": "AU", "geometry": {"coordinates": [116.357519, -32.753078], "type": "Point"}, "geometry_name": "BE South", "id": "BE South", "properties": {}, "type": "Feature"}, {"commodity": "Fe", "country_code": "AU", "geometry": {"coordinates": [117.775703, -20.766041], "type": "Point"}, "geometry_name": "Balla Balla Central - East", "id": "Balla Balla Central - East", "properties": {}, "type": "Feature"}, {"commodity": "Pt", "country_code": "AU", "geometry": {"coordinates": [127.831596, -17.75153], "type": "Point"}, "geometry_name": "Panton", "id": "Panton", "properties": {}, "type": "Feature"}, {"commodity": "Au", "country_code": "AU", "geometry": {"coordinates": [116.379426, -28.669106], "type": "Point"}, "geometry_name": "Deflector Resopurce Gp", "id": "Deflector Resopurce Gp", "properties": {}, "type": "Feature"}, {"commodity": "Cu", "country_code": "AU", "geometry": {"coordinates": [122.210899, -21.722401], "type": "Point"}, "geometry_name": "Main Dome", "id": "Main Dome", "properties": {}, "type": "Feature"}, {"commodity": "Au", "country_code": "AU", "geometry": {"coordinates": [127.831596, -17.75153], "type": "Point"}, "geometry_name": "Panton", "id": "Panton", "properties": {}, "type": "Feature"}, {"commodity": "Cu", "country_code": "AU", "geometry": {"coordinates": [120.208397, -33.754559], "type": "Point"}, "geometry_name": "Trilogy", "id": "Trilogy", "properties": {}, "type": "Feature"}, {"commodity": "Cu", "country_code": "AU", "geometry": {"coordinates": [116.379426, -28.669106], "type": "Point"}, "geometry_name": "Deflector Resopurce Gp", "id": "Deflector Resopurce Gp", "properties": {}, "type": "Feature"}, {"commodity": "Ni", "country_code": "AU", "geometry": {"coordinates": [121.890682, -28.801679], "type": "Point"}, "geometry_name": "Murrin Murrin", "id": "Murrin Murrin", "properties": {}, "type": "Feature"}, {"commodity": "Fe", "country_code": "AU", "geometry": {"coordinates": [118.460767, -20.936753], "type": "Point"}, "geometry_name": "Mt Dove", "id": "Mt Dove", "properties": {}, "type": "Feature"}, {"commodity": "Ni", "country_code": "AU", "geometry": {"coordinates": [120.705597, -27.818119], "type": "Point"}, "geometry_name": "Leinster", "id": "Leinster", "properties": {}, "type": "Feature"}, {"commodity": "Au", "country_code": "AU", "geometry": {"coordinates": [121.798698, -32.197948], "type": "Point"}, "geometry_name": "Bullen", "id": "Bullen", "properties": {}, "type": "Feature"}, {"commodity": "Cu", "country_code": "AU", "geometry": {"coordinates": [116.964192, -28.776865], "type": "Point"}, "geometry_name": "Golden Grove Gp", "id": "Golden Grove Gp", "properties": {}, "type": "Feature"}, {"commodity": "Fe", "country_code": "AU", "geometry": {"coordinates": [120.1371, -23.380329], "type": "Point"}, "geometry_name": "Jimblebar Hub", "id": "Jimblebar Hub", "properties": {}, "type": "Feature"}, {"commodity": "Au", "country_code": "AU", "geometry": {"coordinates": [116.964192, -28.776865], "type": "Point"}, "geometry_name": "Golden Grove Gp", "id": "Golden Grove Gp", "properties": {}, "type": "Feature"}, {"commodity": "Fe", "country_code": "AU", "geometry": {"coordinates": [115.620499, -28.11491], "type": "Point"}, "geometry_name": "T6B", "id": "T6B", "properties": {}, "type": "Feature"}, {"commodity": "Au", "country_code": "AU", "geometry": {"coordinates": [127.831596, -17.75153], "type": "Point"}, "geometry_name": "Panton", "id": "Panton", "properties": {}, "type": "Feature"}, {"commodity": "Mn", "country_code": "AU", "geometry": {"coordinates": [120.666496, -23.551399], "type": "Point"}, "geometry_name": "King Brown", "id": "King Brown", "properties": {}, "type": "Feature"}, {"commodity": "Zn", "country_code": "AU", "geometry": {"coordinates": [116.964192, -28.776865], "type": "Point"}, "geometry_name": "Golden Grove Gp", "id": "Golden Grove Gp", "properties": {}, "type": "Feature"}, {"commodity": "Ni", "country_code": "AU", "geometry": {"coordinates": [121.842903, -31.505461], "type": "Point"}, "geometry_name": "Lanfranchi Group", "id": "Lanfranchi Group", "properties": {}, "type": "Feature"}, {"commodity": "Fe", "country_code": "AU", "geometry": {"coordinates": [120.1371, -23.380329], "type": "Point"}, "geometry_name": "Jimblebar Hub", "id": "Jimblebar Hub", "properties": {}, "type": "Feature"}, {"commodity": "Au", "country_code": "AU", "geometry": {"coordinates": [122.210899, -21.722401], "type": "Point"}, "geometry_name": "Telfer Pit", "id": "Telfer Pit", "properties": {}, "type": "Feature"}, {"commodity": "Fe", "country_code": "AU", "geometry": {"coordinates": [117.607108, -26.953052], "type": "Point"}, "geometry_name": "W14", "id": "W14", "properties": {}, "type": "Feature"}, {"commodity": "Cu", "country_code": "AU", "geometry": {"coordinates": [119.328132, -25.540623], "type": "Point"}, "geometry_name": "DeGrussa Resource Gp", "id": "DeGrussa Resource Gp", "properties": {}, "type": "Feature"}, {"commodity": "Au", "country_code": "AU", "geometry": {"coordinates": [121.035048, -30.639761], "type": "Point"}, "geometry_name": "Resources Group", "id": "Resources Group", "properties": {}, "type": "Feature"}, {"commodity": "Fe", "country_code": "AU", "geometry": {"coordinates": [118.962601, -22.92985], "type": "Point"}, "geometry_name": "MAC Group", "id": "MAC Group", "properties": {}, "type": "Feature"}, {"commodity": "Pb", "country_code": "AU", "geometry": {"coordinates": [116.964192, -28.776865], "type": "Point"}, "geometry_name": "Gossan Hill U/G", "id": "Gossan Hill U/G", "properties": {}, "type": "Feature"}, {"commodity": "Fe", "country_code": "AU", "geometry": {"coordinates": [119.849593, -22.379427], "type": "Point"}, "geometry_name": "Resources Group", "id": "Resources Group", "properties": {}, "type": "Feature"}, {"commodity": "Fe", "country_code": "AU", "geometry": {"coordinates": [120.1371, -23.380329], "type": "Point"}, "geometry_name": "Jimblebar Hub", "id": "Jimblebar Hub", "properties": {}, "type": "Feature"}, {"commodity": "Fe", "country_code": "AU", "geometry": {"coordinates": [118.962601, -22.92985], "type": "Point"}, "geometry_name": "MAC Group", "id": "MAC Group", "properties": {}, "type": "Feature"}, {"commodity": "Fe", "country_code": "AU", "geometry": {"coordinates": [120.1371, -23.380329], "type": "Point"}, "geometry_name": "Jimblebar Hub", "id": "Jimblebar Hub", "properties": {}, "type": "Feature"}, {"commodity": "Zn", "country_code": "AU", "geometry": {"coordinates": [116.964192, -28.776865], "type": "Point"}, "geometry_name": "Golden Grove Gp", "id": "Golden Grove Gp", "properties": {}, "type": "Feature"}, {"commodity": "Au", "country_code": "AU", "geometry": {"coordinates": [121.332802, -28.917021], "type": "Point"}, "geometry_name": "Sons of Gwalia", "id": "Sons of Gwalia", "properties": {}, "type": "Feature"}, {"commodity": "Fe", "country_code": "AU", "geometry": {"coordinates": [118.962601, -22.92985], "type": "Point"}, "geometry_name": "MAC Group", "id": "MAC Group", "properties": {}, "type": "Feature"}, {"commodity": "Pt", "country_code": "AU", "geometry": {"coordinates": [127.831596, -17.75153], "type": "Point"}, "geometry_name": "Panton", "id": "Panton", "properties": {}, "type": "Feature"}, {"commodity": "Fe", "country_code": "AU", "geometry": {"coordinates": [119.849593, -22.379427], "type": "Point"}, "geometry_name": "Resources Group", "id": "Resources Group", "properties": {}, "type": "Feature"}, {"commodity": "Pt", "country_code": "AU", "geometry": {"coordinates": [127.831596, -17.75153], "type": "Point"}, "geometry_name": "Panton", "id": "Panton", "properties": {}, "type": "Feature"}, {"commodity": "Fe", "country_code": "AU", "geometry": {"coordinates": [119.6754, -23.36536], "type": "Point"}, "geometry_name": "Newman Group", "id": "Newman Group", "properties": {}, "type": "Feature"}, {"commodity": "Au", "country_code": "AU", "geometry": {"coordinates": [116.379426, -28.669106], "type": "Point"}, "geometry_name": "Deflector Resopurce Gp", "id": "Deflector Resopurce Gp", "properties": {}, "type": "Feature"}, {"commodity": "Cu", "country_code": "AU", "geometry": {"coordinates": [119.211954, -21.146509], "type": "Point"}, "geometry_name": "Mine Portal", "id": "Mine Portal", "properties": {}, "type": "Feature"}, {"commodity": "Fe", "country_code": "AU", "geometry": {"coordinates": [119.6754, -23.36536], "type": "Point"}, "geometry_name": "Newman Group", "id": "Newman Group", "properties": {}, "type": "Feature"}, {"commodity": "Fe", "country_code": "AU", "geometry": {"coordinates": [117.161102, -29.575859], "type": "Point"}, "geometry_name": "Extension Hill Hem", "id": "Extension Hill Hem", "properties": {}, "type": "Feature"}, {"commodity": "Fe", "country_code": "AU", "geometry": {"coordinates": [118.962601, -22.92985], "type": "Point"}, "geometry_name": "MAC Group", "id": "MAC Group", "properties": {}, "type": "Feature"}, {"commodity": "Fe", "country_code": "AU", "geometry": {"coordinates": [119.12153, -20.256618], "type": "Point"}, "geometry_name": "Resources Group", "id": "Resources Group", "properties": {}, "type": "Feature"}, {"commodity": "Cu", "country_code": "AU", "geometry": {"coordinates": [119.211954, -21.146509], "type": "Point"}, "geometry_name": "Mine Portal", "id": "Mine Portal", "properties": {}, "type": "Feature"}, {"commodity": "Ni", "country_code": "AU", "geometry": {"coordinates": [120.705597, -27.818119], "type": "Point"}, "geometry_name": "Leinster", "id": "Leinster", "properties": {}, "type": "Feature"}, {"commodity": "Pt", "country_code": "AU", "geometry": {"coordinates": [127.831596, -17.75153], "type": "Point"}, "geometry_name": "Panton", "id": "Panton", "properties": {}, "type": "Feature"}, {"commodity": "Cu", "country_code": "AU", "geometry": {"coordinates": [116.964192, -28.776865], "type": "Point"}, "geometry_name": "Gossan Hill U/G", "id": "Gossan Hill U/G", "properties": {}, "type": "Feature"}, {"commodity": "Au", "country_code": "AU", "geometry": {"coordinates": [122.209982, -31.040939], "type": "Point"}, "geometry_name": "Santa North", "id": "Santa North", "properties": {}, "type": "Feature"}, {"commodity": "Fe", "country_code": "AU", "geometry": {"coordinates": [120.1371, -23.380329], "type": "Point"}, "geometry_name": "Jimblebar Hub", "id": "Jimblebar Hub", "properties": {}, "type": "Feature"}, {"commodity": "Au", "country_code": "AU", "geometry": {"coordinates": [116.964192, -28.776865], "type": "Point"}, "geometry_name": "Golden Grove Gp", "id": "Golden Grove Gp", "properties": {}, "type": "Feature"}, {"commodity": "Au", "country_code": "AU", "geometry": {"coordinates": [122.210899, -21.722401], "type": "Point"}, "geometry_name": "Main Dome", "id": "Main Dome", "properties": {}, "type": "Feature"}, {"commodity": "Fe", "country_code": "AU", "geometry": {"coordinates": [119.6754, -23.36536], "type": "Point"}, "geometry_name": "Newman Group", "id": "Newman Group", "properties": {}, "type": "Feature"}, {"commodity": "Fe", "country_code": "AU", "geometry": {"coordinates": [118.962601, -22.92985], "type": "Point"}, "geometry_name": "MAC Group", "id": "MAC Group", "properties": {}, "type": "Feature"}, {"commodity": "Fe", "country_code": "AU", "geometry": {"coordinates": [119.105797, -21.14382], "type": "Point"}, "geometry_name": "Resources Group", "id": "Resources Group", "properties": {}, "type": "Feature"}, {"commodity": "Cu", "country_code": "AU", "geometry": {"coordinates": [121.169987, -28.483949], "type": "Point"}, "geometry_name": "Bentley", "id": "Bentley", "properties": {}, "type": "Feature"}, {"commodity": "Fe", "country_code": "AU", "geometry": {"coordinates": [128.939301, -26.03964], "type": "Point"}, "geometry_name": "Wingellina", "id": "Wingellina", "properties": {}, "type": "Feature"}, {"commodity": "Au", "country_code": "AU", "geometry": {"coordinates": [119.776505, -32.096042], "type": "Point"}, "geometry_name": "Bounty UG", "id": "Bounty UG", "properties": {}, "type": "Feature"}, {"commodity": "Cu", "country_code": "AU", "geometry": {"coordinates": [116.379426, -28.669106], "type": "Point"}, "geometry_name": "Deflector Resopurce Gp", "id": "Deflector Resopurce Gp", "properties": {}, "type": "Feature"}, {"commodity": "Au", "country_code": "AU", "geometry": {"coordinates": [118.585899, -24.6444], "type": "Point"}, "geometry_name": "Abra", "id": "Abra", "properties": {}, "type": "Feature"}, {"commodity": "Fe", "country_code": "AU", "geometry": {"coordinates": [118.962601, -22.92985], "type": "Point"}, "geometry_name": "MAC Group", "id": "MAC Group", "properties": {}, "type": "Feature"}, {"commodity": "Au", "country_code": "AU", "geometry": {"coordinates": [122.358842, -30.143391], "type": "Point"}, "geometry_name": "Whirling Dervish", "id": "Whirling Dervish", "properties": {}, "type": "Feature"}, {"commodity": "Fe", "country_code": "AU", "geometry": {"coordinates": [120.48004, -23.420302], "type": "Point"}, "geometry_name": "Python", "id": "Python", "properties": {}, "type": "Feature"}, {"commodity": "Fe", "country_code": "AU", "geometry": {"coordinates": [120.1371, -23.380329], "type": "Point"}, "geometry_name": "Jimblebar Hub", "id": "Jimblebar Hub", "properties": {}, "type": "Feature"}, {"commodity": "Cu", "country_code": "AU", "geometry": {"coordinates": [119.211954, -21.146509], "type": "Point"}, "geometry_name": "Mine Portal", "id": "Mine Portal", "properties": {}, "type": "Feature"}, {"commodity": "Mn", "country_code": "AU", "geometry": {"coordinates": [116.22877, -22.193978], "type": "Point"}, "geometry_name": "Cardo Bore E", "id": "Cardo Bore E", "properties": {}, "type": "Feature"}, {"commodity": "Cu", "country_code": "AU", "geometry": {"coordinates": [116.964192, -28.776865], "type": "Point"}, "geometry_name": "Golden Grove Gp", "id": "Golden Grove Gp", "properties": {}, "type": "Feature"}, {"commodity": "Au", "country_code": "AU", "geometry": {"coordinates": [121.798698, -32.197948], "type": "Point"}, "geometry_name": "Bullen", "id": "Bullen", "properties": {}, "type": "Feature"}, {"commodity": "Cu", "country_code": "AU", "geometry": {"coordinates": [122.258499, -21.792101], "type": "Point"}, "geometry_name": "O'Callaghans", "id": "O'Callaghans", "properties": {}, "type": "Feature"}, {"commodity": "Zn", "country_code": "AU", "geometry": {"coordinates": [121.155098, -28.444611], "type": "Point"}, "geometry_name": "Jaguar", "id": "Jaguar", "properties": {}, "type": "Feature"}, {"commodity": "Zn", "country_code": "AU", "geometry": {"coordinates": [122.258499, -21.792101], "type": "Point"}, "geometry_name": "O'Callaghans", "id": "O'Callaghans", "properties": {}, "type": "Feature"}, {"commodity": "Fe", "country_code": "AU", "geometry": {"coordinates": [120.48004, -23.420302], "type": "Point"}, "geometry_name": "Resources Group", "id": "Resources Group", "properties": {}, "type": "Feature"}, {"commodity": "Fe", "country_code": "AU", "geometry": {"coordinates": [118.962601, -22.92985], "type": "Point"}, "geometry_name": "MAC Group", "id": "MAC Group", "properties": {}, "type": "Feature"}, {"commodity": "Au", "country_code": "AU", "geometry": {"coordinates": [121.182256, -28.341374], "type": "Point"}, "geometry_name": "Wonder North", "id": "Wonder North", "properties": {}, "type": "Feature"}, {"commodity": "Fe", "country_code": "AU", "geometry": {"coordinates": [119.29855, -21.543976], "type": "Point"}, "geometry_name": "Resources Group", "id": "Resources Group", "properties": {}, "type": "Feature"}, {"commodity": "Zn", "country_code": "AU", "geometry": {"coordinates": [116.964192, -28.776865], "type": "Point"}, "geometry_name": "Golden Grove Gp", "id": "Golden Grove Gp", "properties": {}, "type": "Feature"}, {"commodity": "Fe", "country_code": "AU", "geometry": {"coordinates": [119.952677, -28.72131], "type": "Point"}, "geometry_name": "Resources Group", "id": "Resources Group", "properties": {}, "type": "Feature"}, {"commodity": "Au", "country_code": "AU", "geometry": {"coordinates": [121.035048, -30.639761], "type": "Point"}, "geometry_name": "Resources Group", "id": "Resources Group", "properties": {}, "type": "Feature"}, {"commodity": "Fe", "country_code": "AU", "geometry": {"coordinates": [120.48004, -23.420302], "type": "Point"}, "geometry_name": "Resources Group", "id": "Resources Group", "properties": {}, "type": "Feature"}, {"commodity": "Fe", "country_code": "AU", "geometry": {"coordinates": [119.937302, -26.680361], "type": "Point"}, "geometry_name": "C4", "id": "C4", "properties": {}, "type": "Feature"}, {"commodity": "Au", "country_code": "AU", "geometry": {"coordinates": [116.357519, -32.753078], "type": "Point"}, "geometry_name": "BE South", "id": "BE South", "properties": {}, "type": "Feature"}, {"commodity": "Cu", "country_code": "AU", "geometry": {"coordinates": [120.1045, -20.88829], "type": "Point"}, "geometry_name": "Spinifex Ridge", "id": "Spinifex Ridge", "properties": {}, "type": "Feature"}, {"commodity": "Fe", "country_code": "AU", "geometry": {"coordinates": [118.009851, -22.328173], "type": "Point"}, "geometry_name": "Winmar", "id": "Winmar", "properties": {}, "type": "Feature"}, {"commodity": "Zn", "country_code": "AU", "geometry": {"coordinates": [119.211954, -21.146509], "type": "Point"}, "geometry_name": "Mine Portal", "id": "Mine Portal", "properties": {}, "type": "Feature"}, {"commodity": "Fe", "country_code": "AU", "geometry": {"coordinates": [123.554641, -16.094373], "type": "Point"}, "geometry_name": "Hardstaff Point", "id": "Hardstaff Point", "properties": {}, "type": "Feature"}, {"commodity": "Fe", "country_code": "AU", "geometry": {"coordinates": [120.1371, -23.380329], "type": "Point"}, "geometry_name": "Jimblebar Hub", "id": "Jimblebar Hub", "properties": {}, "type": "Feature"}, {"commodity": "Au", "country_code": "AU", "geometry": {"coordinates": [121.576103, -30.61009], "type": "Point"}, "geometry_name": "Golden Valley", "id": "Golden Valley", "properties": {}, "type": "Feature"}, {"commodity": "Cu", "country_code": "AU", "geometry": {"coordinates": [121.155098, -28.444611], "type": "Point"}, "geometry_name": "Jaguar", "id": "Jaguar", "properties": {}, "type": "Feature"}, {"commodity": "Au", "country_code": "AU", "geometry": {"coordinates": [119.492599, -31.464569], "type": "Point"}, "geometry_name": "Marvel Loch", "id": "Marvel Loch", "properties": {}, "type": "Feature"}, {"commodity": "Zn", "country_code": "AU", "geometry": {"coordinates": [121.169987, -28.483949], "type": "Point"}, "geometry_name": "Bentley", "id": "Bentley", "properties": {}, "type": "Feature"}, {"commodity": "Cu", "country_code": "AU", "geometry": {"coordinates": [119.211954, -21.146509], "type": "Point"}, "geometry_name": "Mine Portal", "id": "Mine Portal", "properties": {}, "type": "Feature"}, {"commodity": "Pb", "country_code": "AU", "geometry": {"coordinates": [117.808023, -20.881552], "type": "Point"}, "geometry_name": "Mons Cupri Ox", "id": "Mons Cupri Ox", "properties": {}, "type": "Feature"}, {"commodity": "Pb", "country_code": "AU", "geometry": {"coordinates": [120.208397, -33.754559], "type": "Point"}, "geometry_name": "Trilogy", "id": "Trilogy", "properties": {}, "type": "Feature"}, {"commodity": "Fe", "country_code": "AU", "geometry": {"coordinates": [121.244227, -21.631369], "type": "Point"}, "geometry_name": "Woodie Woodie Group", "id": "Woodie Woodie Group", "properties": {}, "type": "Feature"}, {"commodity": "Au", "country_code": "AU", "geometry": {"coordinates": [120.401012, -21.802565], "type": "Point"}, "geometry_name": "Resource Group", "id": "Resource Group", "properties": {}, "type": "Feature"}, {"commodity": "Fe", "country_code": "AU", "geometry": {"coordinates": [118.531308, -22.930937], "type": "Point"}, "geometry_name": "Juna Downs South Detritals", "id": "Juna Downs South Detritals", "properties": {}, "type": "Feature"}, {"commodity": "Zn", "country_code": "AU", "geometry": {"coordinates": [119.211954, -21.146509], "type": "Point"}, "geometry_name": "Mine Portal", "id": "Mine Portal", "properties": {}, "type": "Feature"}, {"commodity": "Au", "country_code": "AU", "geometry": {"coordinates": [116.708702, -28.13739], "type": "Point"}, "geometry_name": "Noongal-Brilliant", "id": "Noongal-Brilliant", "properties": {}, "type": "Feature"}, {"commodity": "Au", "country_code": "AU", "geometry": {"coordinates": [121.231695, -30.529133], "type": "Point"}, "geometry_name": "Paddington Group", "id": "Paddington Group", "properties": {}, "type": "Feature"}, {"commodity": "Au", "country_code": "AU", "geometry": {"coordinates": [116.964192, -28.776865], "type": "Point"}, "geometry_name": "Golden Grove Gp", "id": "Golden Grove Gp", "properties": {}, "type": "Feature"}, {"commodity": "Cu", "country_code": "AU", "geometry": {"coordinates": [118.585899, -24.6444], "type": "Point"}, "geometry_name": "Abra", "id": "Abra", "properties": {}, "type": "Feature"}, {"commodity": "Zn", "country_code": "AU", "geometry": {"coordinates": [121.155098, -28.444611], "type": "Point"}, "geometry_name": "Jaguar", "id": "Jaguar", "properties": {}, "type": "Feature"}, {"commodity": "Fe", "country_code": "AU", "geometry": {"coordinates": [116.242203, -21.750059], "type": "Point"}, "geometry_name": "Robe R Gp", "id": "Robe R Gp", "properties": {}, "type": "Feature"}, {"commodity": "Pb", "country_code": "AU", "geometry": {"coordinates": [119.211954, -21.146509], "type": "Point"}, "geometry_name": "Mine Portal", "id": "Mine Portal", "properties": {}, "type": "Feature"}, {"commodity": "Mn", "country_code": "AU", "geometry": {"coordinates": [117.288312, -22.953555], "type": "Point"}, "geometry_name": "Hardey Brockman", "id": "Hardey Brockman", "properties": {}, "type": "Feature"}, {"commodity": "Ni", "country_code": "AU", "geometry": {"coordinates": [121.792999, -28.86331], "type": "Point"}, "geometry_name": "Murrin Murrin Hepi", "id": "Murrin Murrin Hepi", "properties": {}, "type": "Feature"}, {"commodity": "Au", "country_code": "AU", "geometry": {"coordinates": [116.357519, -32.753078], "type": "Point"}, "geometry_name": "BE South", "id": "BE South", "properties": {}, "type": "Feature"}, {"commodity": "Fe", "country_code": "AU", "geometry": {"coordinates": [121.244227, -21.631369], "type": "Point"}, "geometry_name": "Woodie Woodie Group", "id": "Woodie Woodie Group", "properties": {}, "type": "Feature"}, {"commodity": "Ni", "country_code": "AU", "geometry": {"coordinates": [120.54174, -27.229599], "type": "Point"}, "geometry_name": "Mt Keith", "id": "Mt Keith", "properties": {}, "type": "Feature"}, {"commodity": "Zn", "country_code": "AU", "geometry": {"coordinates": [116.964192, -28.776865], "type": "Point"}, "geometry_name": "Golden Grove Gp", "id": "Golden Grove Gp", "properties": {}, "type": "Feature"}, {"commodity": "Mn", "country_code": "AU", "geometry": {"coordinates": [116.336662, -22.354352], "type": "Point"}, "geometry_name": "Trinity Bore Iron", "id": "Trinity Bore Iron", "properties": {}, "type": "Feature"}, {"commodity": "Cu", "country_code": "AU", "geometry": {"coordinates": [119.328132, -25.540623], "type": "Point"}, "geometry_name": "DeGrussa Resource Gp", "id": "DeGrussa Resource Gp", "properties": {}, "type": "Feature"}, {"commodity": "Zn", "country_code": "AU", "geometry": {"coordinates": [116.964192, -28.776865], "type": "Point"}, "geometry_name": "Golden Grove Gp", "id": "Golden Grove Gp", "properties": {}, "type": "Feature"}, {"commodity": "Fe", "country_code": "AU", "geometry": {"coordinates": [119.065498, -22.718639], "type": "Point"}, "geometry_name": "Yandi", "id": "Yandi", "properties": {}, "type": "Feature"}, {"commodity": "Fe", "country_code": "AU", "geometry": {"coordinates": [118.962601, -22.92985], "type": "Point"}, "geometry_name": "MAC Group", "id": "MAC Group", "properties": {}, "type": "Feature"}, {"commodity": "Fe", "country_code": "AU", "geometry": {"coordinates": [118.962601, -22.92985], "type": "Point"}, "geometry_name": "MAC Group", "id": "MAC Group", "properties": {}, "type": "Feature"}, {"commodity": "Au", "country_code": "AU", "geometry": {"coordinates": [121.798698, -32.197948], "type": "Point"}, "geometry_name": "Bullen", "id": "Bullen", "properties": {}, "type": "Feature"}, {"commodity": "Au", "country_code": "AU", "geometry": {"coordinates": [116.379426, -28.669106], "type": "Point"}, "geometry_name": "Deflector Resopurce Gp", "id": "Deflector Resopurce Gp", "properties": {}, "type": "Feature"}, {"commodity": "Fe", "country_code": "AU", "geometry": {"coordinates": [119.6754, -23.36536], "type": "Point"}, "geometry_name": "Newman Group", "id": "Newman Group", "properties": {}, "type": "Feature"}, {"commodity": "Fe", "country_code": "AU", "geometry": {"coordinates": [119.6754, -23.36536], "type": "Point"}, "geometry_name": "Newman Group", "id": "Newman Group", "properties": {}, "type": "Feature"}, {"commodity": "Pb", "country_code": "AU", "geometry": {"coordinates": [121.155098, -28.444611], "type": "Point"}, "geometry_name": "Jaguar", "id": "Jaguar", "properties": {}, "type": "Feature"}, {"commodity": "Au", "country_code": "AU", "geometry": {"coordinates": [119.492599, -31.464569], "type": "Point"}, "geometry_name": "Marvel Loch", "id": "Marvel Loch", "properties": {}, "type": "Feature"}, {"commodity": "Fe", "country_code": "AU", "geometry": {"coordinates": [115.596703, -28.1154], "type": "Point"}, "geometry_name": "T5", "id": "T5", "properties": {}, "type": "Feature"}, {"commodity": "Fe", "country_code": "AU", "geometry": {"coordinates": [119.6754, -23.36536], "type": "Point"}, "geometry_name": "Newman Group", "id": "Newman Group", "properties": {}, "type": "Feature"}, {"commodity": "Au", "country_code": "AU", "geometry": {"coordinates": [127.831596, -17.75153], "type": "Point"}, "geometry_name": "Panton", "id": "Panton", "properties": {}, "type": "Feature"}, {"commodity": "Fe", "country_code": "AU", "geometry": {"coordinates": [120.1371, -23.380329], "type": "Point"}, "geometry_name": "Jimblebar Hub", "id": "Jimblebar Hub", "properties": {}, "type": "Feature"}, {"commodity": "Ni", "country_code": "AU", "geometry": {"coordinates": [121.890682, -28.801679], "type": "Point"}, "geometry_name": "Murrin Murrin", "id": "Murrin Murrin", "properties": {}, "type": "Feature"}, {"commodity": "Fe", "country_code": "AU", "geometry": {"coordinates": [120.1371, -23.380329], "type": "Point"}, "geometry_name": "Jimblebar Hub", "id": "Jimblebar Hub", "properties": {}, "type": "Feature"}, {"commodity": "Au", "country_code": "AU", "geometry": {"coordinates": [122.210899, -21.722401], "type": "Point"}, "geometry_name": "Main Dome", "id": "Main Dome", "properties": {}, "type": "Feature"}, {"commodity": "Au", "country_code": "AU", "geometry": {"coordinates": [127.831596, -17.75153], "type": "Point"}, "geometry_name": "Panton", "id": "Panton", "properties": {}, "type": "Feature"}, {"commodity": "Au", "country_code": "AU", "geometry": {"coordinates": [119.492599, -31.464569], "type": "Point"}, "geometry_name": "Marvel Loch", "id": "Marvel Loch", "properties": {}, "type": "Feature"}, {"commodity": "Ni", "country_code": "AU", "geometry": {"coordinates": [127.831596, -17.75153], "type": "Point"}, "geometry_name": "Panton", "id": "Panton", "properties": {}, "type": "Feature"}, {"commodity": "Fe", "country_code": "AU", "geometry": {"coordinates": [116.336662, -22.354352], "type": "Point"}, "geometry_name": "Trinity Bore Iron", "id": "Trinity Bore Iron", "properties": {}, "type": "Feature"}, {"commodity": "Cu", "country_code": "AU", "geometry": {"coordinates": [122.210899, -21.722401], "type": "Point"}, "geometry_name": "Telfer Pit", "id": "Telfer Pit", "properties": {}, "type": "Feature"}, {"commodity": "Pt", "country_code": "AU", "geometry": {"coordinates": [127.831596, -17.75153], "type": "Point"}, "geometry_name": "Panton", "id": "Panton", "properties": {}, "type": "Feature"}, {"commodity": "Fe", "country_code": "AU", "geometry": {"coordinates": [115.620499, -28.11491], "type": "Point"}, "geometry_name": "T6B", "id": "T6B", "properties": {}, "type": "Feature"}, {"commodity": "Cu", "country_code": "AU", "geometry": {"coordinates": [120.208397, -33.754559], "type": "Point"}, "geometry_name": "Trilogy", "id": "Trilogy", "properties": {}, "type": "Feature"}, {"commodity": "Au", "country_code": "AU", "geometry": {"coordinates": [117.164037, -29.760508], "type": "Point"}, "geometry_name": "Tobias Find", "id": "Tobias Find", "properties": {}, "type": "Feature"}, {"commodity": "Fe", "country_code": "AU", "geometry": {"coordinates": [119.6754, -23.36536], "type": "Point"}, "geometry_name": "Newman Group", "id": "Newman Group", "properties": {}, "type": "Feature"}, {"commodity": "Fe", "country_code": "AU", "geometry": {"coordinates": [118.962601, -22.92985], "type": "Point"}, "geometry_name": "MAC Group", "id": "MAC Group", "properties": {}, "type": "Feature"}, {"commodity": "Au", "country_code": "AU", "geometry": {"coordinates": [121.256852, -30.737972], "type": "Point"}, "geometry_name": "Pegasus", "id": "Pegasus", "properties": {}, "type": "Feature"}, {"commodity": "Mn", "country_code": "AU", "geometry": {"coordinates": [116.22877, -22.193978], "type": "Point"}, "geometry_name": "Cardo Bore E", "id": "Cardo Bore E", "properties": {}, "type": "Feature"}, {"commodity": "Fe", "country_code": "AU", "geometry": {"coordinates": [121.244227, -21.631369], "type": "Point"}, "geometry_name": "Woodie Woodie Group", "id": "Woodie Woodie Group", "properties": {}, "type": "Feature"}, {"commodity": "Cu", "country_code": "AU", "geometry": {"coordinates": [116.357519, -32.753078], "type": "Point"}, "geometry_name": "BE South", "id": "BE South", "properties": {}, "type": "Feature"}, {"commodity": "Au", "country_code": "AU", "geometry": {"coordinates": [121.798698, -32.197948], "type": "Point"}, "geometry_name": "Bullen", "id": "Bullen", "properties": {}, "type": "Feature"}, {"commodity": "Au", "country_code": "AU", "geometry": {"coordinates": [116.964192, -28.776865], "type": "Point"}, "geometry_name": "Golden Grove Gp", "id": "Golden Grove Gp", "properties": {}, "type": "Feature"}, {"commodity": "Ni", "country_code": "AU", "geometry": {"coordinates": [120.705597, -27.818119], "type": "Point"}, "geometry_name": "Leinster", "id": "Leinster", "properties": {}, "type": "Feature"}, {"commodity": "Au", "country_code": "AU", "geometry": {"coordinates": [127.831596, -17.75153], "type": "Point"}, "geometry_name": "Panton", "id": "Panton", "properties": {}, "type": "Feature"}, {"commodity": "Au", "country_code": "AU", "geometry": {"coordinates": [122.358842, -30.143391], "type": "Point"}, "geometry_name": "Whirling Dervish", "id": "Whirling Dervish", "properties": {}, "type": "Feature"}, {"commodity": "Fe", "country_code": "AU", "geometry": {"coordinates": [120.1371, -23.380329], "type": "Point"}, "geometry_name": "Jimblebar Hub", "id": "Jimblebar Hub", "properties": {}, "type": "Feature"}, {"commodity": "Pb", "country_code": "AU", "geometry": {"coordinates": [116.964192, -28.776865], "type": "Point"}, "geometry_name": "Golden Grove Gp", "id": "Golden Grove Gp", "properties": {}, "type": "Feature"}, {"commodity": "Cu", "country_code": "AU", "geometry": {"coordinates": [117.808023, -20.881552], "type": "Point"}, "geometry_name": "Mons Cupri Ox", "id": "Mons Cupri Ox", "properties": {}, "type": "Feature"}, {"commodity": "Cu", "country_code": "AU", "geometry": {"coordinates": [127.831596, -17.75153], "type": "Point"}, "geometry_name": "Panton", "id": "Panton", "properties": {}, "type": "Feature"}, {"commodity": "Zn", "country_code": "AU", "geometry": {"coordinates": [116.964192, -28.776865], "type": "Point"}, "geometry_name": "Golden Grove Gp", "id": "Golden Grove Gp", "properties": {}, "type": "Feature"}, {"commodity": "Au", "country_code": "AU", "geometry": {"coordinates": [119.469803, -27.132481], "type": "Point"}, "geometry_name": "Wilsons 2", "id": "Wilsons 2", "properties": {}, "type": "Feature"}, {"commodity": "Au", "country_code": "AU", "geometry": {"coordinates": [120.208397, -33.754559], "type": "Point"}, "geometry_name": "Trilogy", "id": "Trilogy", "properties": {}, "type": "Feature"}, {"commodity": "Pb", "country_code": "AU", "geometry": {"coordinates": [120.208397, -33.754559], "type": "Point"}, "geometry_name": "Trilogy", "id": "Trilogy", "properties": {}, "type": "Feature"}, {"commodity": "Cu", "country_code": "AU", "geometry": {"coordinates": [121.155098, -28.444611], "type": "Point"}, "geometry_name": "Jaguar", "id": "Jaguar", "properties": {}, "type": "Feature"}, {"commodity": "Zn", "country_code": "AU", "geometry": {"coordinates": [116.964192, -28.776865], "type": "Point"}, "geometry_name": "Golden Grove Gp", "id": "Golden Grove Gp", "properties": {}, "type": "Feature"}, {"commodity": "Ni", "country_code": "AU", "geometry": {"coordinates": [127.831596, -17.75153], "type": "Point"}, "geometry_name": "Panton", "id": "Panton", "properties": {}, "type": "Feature"}, {"commodity": "Fe", "country_code": "AU", "geometry": {"coordinates": [119.550051, -30.842675], "type": "Point"}, "geometry_name": "Koolyanobbing C", "id": "Koolyanobbing C", "properties": {}, "type": "Feature"}, {"commodity": "Fe", "country_code": "AU", "geometry": {"coordinates": [119.29855, -21.543976], "type": "Point"}, "geometry_name": "Resources Group", "id": "Resources Group", "properties": {}, "type": "Feature"}, {"commodity": "Fe", "country_code": "AU", "geometry": {"coordinates": [120.1371, -23.380329], "type": "Point"}, "geometry_name": "Jimblebar Hub", "id": "Jimblebar Hub", "properties": {}, "type": "Feature"}, {"commodity": "Au", "country_code": "AU", "geometry": {"coordinates": [127.831596, -17.75153], "type": "Point"}, "geometry_name": "Panton", "id": "Panton", "properties": {}, "type": "Feature"}, {"commodity": "Fe", "country_code": "AU", "geometry": {"coordinates": [119.6754, -23.36536], "type": "Point"}, "geometry_name": "Newman Group", "id": "Newman Group", "properties": {}, "type": "Feature"}, {"commodity": "Au", "country_code": "AU", "geometry": {"coordinates": [122.210899, -21.722401], "type": "Point"}, "geometry_name": "Telfer Pit", "id": "Telfer Pit", "properties": {}, "type": "Feature"}, {"commodity": "Zn", "country_code": "AU", "geometry": {"coordinates": [116.964192, -28.776865], "type": "Point"}, "geometry_name": "Golden Grove Gp", "id": "Golden Grove Gp", "properties": {}, "type": "Feature"}, {"commodity": "Mn", "country_code": "AU", "geometry": {"coordinates": [116.213501, -22.148736], "type": "Point"}, "geometry_name": "Cardo Bore North West", "id": "Cardo Bore North West", "properties": {}, "type": "Feature"}, {"commodity": "Pb", "country_code": "AU", "geometry": {"coordinates": [121.155098, -28.444611], "type": "Point"}, "geometry_name": "Jaguar", "id": "Jaguar", "properties": {}, "type": "Feature"}, {"commodity": "Au", "country_code": "AU", "geometry": {"coordinates": [116.379426, -28.669106], "type": "Point"}, "geometry_name": "Deflector Resopurce Gp", "id": "Deflector Resopurce Gp", "properties": {}, "type": "Feature"}, {"commodity": "Au", "country_code": "AU", "geometry": {"coordinates": [118.585899, -24.6444], "type": "Point"}, "geometry_name": "Abra", "id": "Abra", "properties": {}, "type": "Feature"}, {"commodity": "Zn", "country_code": "AU", "geometry": {"coordinates": [117.808023, -20.881552], "type": "Point"}, "geometry_name": "Mons Cupri Ox", "id": "Mons Cupri Ox", "properties": {}, "type": "Feature"}, {"commodity": "Fe", "country_code": "AU", "geometry": {"coordinates": [119.29855, -21.543976], "type": "Point"}, "geometry_name": "Resources Group", "id": "Resources Group", "properties": {}, "type": "Feature"}, {"commodity": "Pt", "country_code": "AU", "geometry": {"coordinates": [127.831596, -17.75153], "type": "Point"}, "geometry_name": "Panton", "id": "Panton", "properties": {}, "type": "Feature"}, {"commodity": "Pb", "country_code": "AU", "geometry": {"coordinates": [121.155098, -28.444611], "type": "Point"}, "geometry_name": "Jaguar", "id": "Jaguar", "properties": {}, "type": "Feature"}, {"commodity": "Fe", "country_code": "AU", "geometry": {"coordinates": [123.738098, -16.13303], "type": "Point"}, "geometry_name": "Koolan Group", "id": "Koolan Group", "properties": {}, "type": "Feature"}, {"commodity": "Au", "country_code": "AU", "geometry": {"coordinates": [116.964192, -28.776865], "type": "Point"}, "geometry_name": "Golden Grove Gp", "id": "Golden Grove Gp", "properties": {}, "type": "Feature"}, {"commodity": "Cu", "country_code": "AU", "geometry": {"coordinates": [121.155098, -28.444611], "type": "Point"}, "geometry_name": "Jaguar", "id": "Jaguar", "properties": {}, "type": "Feature"}, {"commodity": "Fe", "country_code": "AU", "geometry": {"coordinates": [119.6754, -23.36536], "type": "Point"}, "geometry_name": "Newman Group", "id": "Newman Group", "properties": {}, "type": "Feature"}, {"commodity": "Fe", "country_code": "AU", "geometry": {"coordinates": [118.009851, -22.328173], "type": "Point"}, "geometry_name": "Winmar", "id": "Winmar", "properties": {}, "type": "Feature"}, {"commodity": "Cu", "country_code": "AU", "geometry": {"coordinates": [119.211954, -21.146509], "type": "Point"}, "geometry_name": "Mine Portal", "id": "Mine Portal", "properties": {}, "type": "Feature"}, {"commodity": "Pt", "country_code": "AU", "geometry": {"coordinates": [127.831596, -17.75153], "type": "Point"}, "geometry_name": "Panton", "id": "Panton", "properties": {}, "type": "Feature"}, {"commodity": "Cu", "country_code": "AU", "geometry": {"coordinates": [121.155098, -28.444611], "type": "Point"}, "geometry_name": "Jaguar", "id": "Jaguar", "properties": {}, "type": "Feature"}, {"commodity": "Fe", "country_code": "AU", "geometry": {"coordinates": [118.962601, -22.92985], "type": "Point"}, "geometry_name": "MAC Group", "id": "MAC Group", "properties": {}, "type": "Feature"}, {"commodity": "Zn", "country_code": "AU", "geometry": {"coordinates": [119.211954, -21.146509], "type": "Point"}, "geometry_name": "Mine Portal", "id": "Mine Portal", "properties": {}, "type": "Feature"}, {"commodity": "Fe", "country_code": "AU", "geometry": {"coordinates": [120.1371, -23.380329], "type": "Point"}, "geometry_name": "Jimblebar Hub", "id": "Jimblebar Hub", "properties": {}, "type": "Feature"}, {"commodity": "Pb", "country_code": "AU", "geometry": {"coordinates": [116.964192, -28.776865], "type": "Point"}, "geometry_name": "Golden Grove Gp", "id": "Golden Grove Gp", "properties": {}, "type": "Feature"}, {"commodity": "Cu", "country_code": "AU", "geometry": {"coordinates": [116.964192, -28.776865], "type": "Point"}, "geometry_name": "Golden Grove Gp", "id": "Golden Grove Gp", "properties": {}, "type": "Feature"}, {"commodity": "Au", "country_code": "AU", "geometry": {"coordinates": [122.210899, -21.722401], "type": "Point"}, "geometry_name": "Telfer Pit", "id": "Telfer Pit", "properties": {}, "type": "Feature"}, {"commodity": "Cu", "country_code": "AU", "geometry": {"coordinates": [121.169987, -28.483949], "type": "Point"}, "geometry_name": "Bentley", "id": "Bentley", "properties": {}, "type": "Feature"}, {"commodity": "Fe", "country_code": "AU", "geometry": {"coordinates": [117.240997, -26.054569], "type": "Point"}, "geometry_name": "Jack Hills Group", "id": "Jack Hills Group", "properties": {}, "type": "Feature"}, {"commodity": "Zn", "country_code": "AU", "geometry": {"coordinates": [116.964192, -28.776865], "type": "Point"}, "geometry_name": "Golden Grove Gp", "id": "Golden Grove Gp", "properties": {}, "type": "Feature"}, {"commodity": "Au", "country_code": "AU", "geometry": {"coordinates": [121.231695, -30.529133], "type": "Point"}, "geometry_name": "Paddington Group", "id": "Paddington Group", "properties": {}, "type": "Feature"}, {"commodity": "Cu", "country_code": "AU", "geometry": {"coordinates": [116.964192, -28.776865], "type": "Point"}, "geometry_name": "Golden Grove Gp", "id": "Golden Grove Gp", "properties": {}, "type": "Feature"}, {"commodity": "Fe", "country_code": "AU", "geometry": {"coordinates": [119.554332, -31.618651], "type": "Point"}, "geometry_name": "Mt Caudan", "id": "Mt Caudan", "properties": {}, "type": "Feature"}, {"commodity": "Au", "country_code": "AU", "geometry": {"coordinates": [116.964192, -28.776865], "type": "Point"}, "geometry_name": "Golden Grove Gp", "id": "Golden Grove Gp", "properties": {}, "type": "Feature"}, {"commodity": "Mn", "country_code": "AU", "geometry": {"coordinates": [116.336662, -22.354352], "type": "Point"}, "geometry_name": "Trinity Bore Iron", "id": "Trinity Bore Iron", "properties": {}, "type": "Feature"}, {"commodity": "Cu", "country_code": "AU", "geometry": {"coordinates": [116.964192, -28.776865], "type": "Point"}, "geometry_name": "Golden Grove Gp", "id": "Golden Grove Gp", "properties": {}, "type": "Feature"}, {"commodity": "Cu", "country_code": "AU", "geometry": {"coordinates": [127.831596, -17.75153], "type": "Point"}, "geometry_name": "Panton", "id": "Panton", "properties": {}, "type": "Feature"}, {"commodity": "Au", "country_code": "AU", "geometry": {"coordinates": [119.469803, -27.132481], "type": "Point"}, "geometry_name": "Wilsons 2", "id": "Wilsons 2", "properties": {}, "type": "Feature"}, {"commodity": "Fe", "country_code": "AU", "geometry": {"coordinates": [119.952677, -28.72131], "type": "Point"}, "geometry_name": "Resources Group", "id": "Resources Group", "properties": {}, "type": "Feature"}, {"commodity": "Zn", "country_code": "AU", "geometry": {"coordinates": [116.964192, -28.776865], "type": "Point"}, "geometry_name": "Golden Grove Gp", "id": "Golden Grove Gp", "properties": {}, "type": "Feature"}, {"commodity": "Pt", "country_code": "AU", "geometry": {"coordinates": [127.831596, -17.75153], "type": "Point"}, "geometry_name": "Panton", "id": "Panton", "properties": {}, "type": "Feature"}, {"commodity": "Fe", "country_code": "AU", "geometry": {"coordinates": [118.661169, -21.206855], "type": "Point"}, "geometry_name": "Wodgina Iron Res Gp", "id": "Wodgina Iron Res Gp", "properties": {}, "type": "Feature"}, {"commodity": "Cu", "country_code": "AU", "geometry": {"coordinates": [121.169987, -28.483949], "type": "Point"}, "geometry_name": "Bentley", "id": "Bentley", "properties": {}, "type": "Feature"}, {"commodity": "Fe", "country_code": "AU", "geometry": {"coordinates": [120.1371, -23.380329], "type": "Point"}, "geometry_name": "Jimblebar Hub", "id": "Jimblebar Hub", "properties": {}, "type": "Feature"}, {"commodity": "Au", "country_code": "AU", "geometry": {"coordinates": [120.461304, -29.091299], "type": "Point"}, "geometry_name": "Meteor", "id": "Meteor", "properties": {}, "type": "Feature"}, {"commodity": "Pb", "country_code": "AU", "geometry": {"coordinates": [119.211954, -21.146509], "type": "Point"}, "geometry_name": "Mine Portal", "id": "Mine Portal", "properties": {}, "type": "Feature"}, {"commodity": "Fe", "country_code": "AU", "geometry": {"coordinates": [118.962601, -22.92985], "type": "Point"}, "geometry_name": "MAC Group", "id": "MAC Group", "properties": {}, "type": "Feature"}, {"commodity": "Au", "country_code": "AU", "geometry": {"coordinates": [127.831596, -17.75153], "type": "Point"}, "geometry_name": "Panton", "id": "Panton", "properties": {}, "type": "Feature"}, {"commodity": "Fe", "country_code": "AU", "geometry": {"coordinates": [119.849593, -22.379427], "type": "Point"}, "geometry_name": "Resources Group", "id": "Resources Group", "properties": {}, "type": "Feature"}, {"commodity": "Ni", "country_code": "AU", "geometry": {"coordinates": [127.831596, -17.75153], "type": "Point"}, "geometry_name": "Panton", "id": "Panton", "properties": {}, "type": "Feature"}, {"commodity": "Ni", "country_code": "AU", "geometry": {"coordinates": [121.792999, -28.86331], "type": "Point"}, "geometry_name": "Murrin Murrin Hepi", "id": "Murrin Murrin Hepi", "properties": {}, "type": "Feature"}, {"commodity": "Ni", "country_code": "AU", "geometry": {"coordinates": [120.705597, -27.818119], "type": "Point"}, "geometry_name": "Leinster", "id": "Leinster", "properties": {}, "type": "Feature"}, {"commodity": "Au", "country_code": "AU", "geometry": {"coordinates": [122.414091, -29.21757], "type": "Point"}, "geometry_name": "Red October U/G", "id": "Red October U/G", "properties": {}, "type": "Feature"}, {"commodity": "Zn", "country_code": "AU", "geometry": {"coordinates": [116.964192, -28.776865], "type": "Point"}, "geometry_name": "Golden Grove Gp", "id": "Golden Grove Gp", "properties": {}, "type": "Feature"}, {"commodity": "Fe", "country_code": "AU", "geometry": {"coordinates": [117.240997, -26.054569], "type": "Point"}, "geometry_name": "Jack Hills Group", "id": "Jack Hills Group", "properties": {}, "type": "Feature"}, {"commodity": "Cu", "country_code": "AU", "geometry": {"coordinates": [127.831596, -17.75153], "type": "Point"}, "geometry_name": "Panton", "id": "Panton", "properties": {}, "type": "Feature"}, {"commodity": "Au", "country_code": "AU", "geometry": {"coordinates": [119.379303, -26.849409], "type": "Point"}, "geometry_name": "Camp", "id": "Camp", "properties": {}, "type": "Feature"}, {"commodity": "Ni", "country_code": "AU", "geometry": {"coordinates": [120.54174, -27.229599], "type": "Point"}, "geometry_name": "Mt Keith", "id": "Mt Keith", "properties": {}, "type": "Feature"}, {"commodity": "Zn", "country_code": "AU", "geometry": {"coordinates": [121.155098, -28.444611], "type": "Point"}, "geometry_name": "Jaguar", "id": "Jaguar", "properties": {}, "type": "Feature"}, {"commodity": "Fe", "country_code": "AU", "geometry": {"coordinates": [119.6754, -23.36536], "type": "Point"}, "geometry_name": "Newman Group", "id": "Newman Group", "properties": {}, "type": "Feature"}, {"commodity": "Cu", "country_code": "AU", "geometry": {"coordinates": [121.155098, -28.444611], "type": "Point"}, "geometry_name": "Jaguar", "id": "Jaguar", "properties": {}, "type": "Feature"}, {"commodity": "Au", "country_code": "AU", "geometry": {"coordinates": [121.263996, -30.749657], "type": "Point"}, "geometry_name": "Hornet", "id": "Hornet", "properties": {}, "type": "Feature"}, {"commodity": "Fe", "country_code": "AU", "geometry": {"coordinates": [119.6754, -23.36536], "type": "Point"}, "geometry_name": "Newman Group", "id": "Newman Group", "properties": {}, "type": "Feature"}, {"commodity": "Cu", "country_code": "AU", "geometry": {"coordinates": [127.831596, -17.75153], "type": "Point"}, "geometry_name": "Panton", "id": "Panton", "properties": {}, "type": "Feature"}, {"commodity": "Fe", "country_code": "AU", "geometry": {"coordinates": [119.6754, -23.36536], "type": "Point"}, "geometry_name": "Newman Group", "id": "Newman Group", "properties": {}, "type": "Feature"}, {"commodity": "Fe", "country_code": "AU", "geometry": {"coordinates": [119.6754, -23.36536], "type": "Point"}, "geometry_name": "Newman Group", "id": "Newman Group", "properties": {}, "type": "Feature"}, {"commodity": "Ni", "country_code": "AU", "geometry": {"coordinates": [128.939301, -26.03964], "type": "Point"}, "geometry_name": "Wingellina", "id": "Wingellina", "properties": {}, "type": "Feature"}, {"commodity": "Ni", "country_code": "AU", "geometry": {"coordinates": [121.890682, -28.801679], "type": "Point"}, "geometry_name": "Murrin Murrin", "id": "Murrin Murrin", "properties": {}, "type": "Feature"}, {"commodity": "Pt", "country_code": "AU", "geometry": {"coordinates": [127.831596, -17.75153], "type": "Point"}, "geometry_name": "Panton", "id": "Panton", "properties": {}, "type": "Feature"}, {"commodity": "Fe", "country_code": "AU", "geometry": {"coordinates": [119.6754, -23.36536], "type": "Point"}, "geometry_name": "Newman Group", "id": "Newman Group", "properties": {}, "type": "Feature"}, {"commodity": "Au", "country_code": "AU", "geometry": {"coordinates": [119.562698, -31.555], "type": "Point"}, "geometry_name": "Bronco South", "id": "Bronco South", "properties": {}, "type": "Feature"}, {"commodity": "Zn", "country_code": "AU", "geometry": {"coordinates": [119.211954, -21.146509], "type": "Point"}, "geometry_name": "Mine Portal", "id": "Mine Portal", "properties": {}, "type": "Feature"}, {"commodity": "Zn", "country_code": "AU", "geometry": {"coordinates": [121.155098, -28.444611], "type": "Point"}, "geometry_name": "Jaguar", "id": "Jaguar", "properties": {}, "type": "Feature"}, {"commodity": "Zn", "country_code": "AU", "geometry": {"coordinates": [119.211954, -21.146509], "type": "Point"}, "geometry_name": "Mine Portal", "id": "Mine Portal", "properties": {}, "type": "Feature"}, {"commodity": "Fe", "country_code": "AU", "geometry": {"coordinates": [119.534869, -30.833163], "type": "Point"}, "geometry_name": "Koolyanobbing A", "id": "Koolyanobbing A", "properties": {}, "type": "Feature"}, {"commodity": "Fe", "country_code": "AU", "geometry": {"coordinates": [118.962601, -22.92985], "type": "Point"}, "geometry_name": "MAC Group", "id": "MAC Group", "properties": {}, "type": "Feature"}, {"commodity": "Fe", "country_code": "AU", "geometry": {"coordinates": [120.1371, -23.380329], "type": "Point"}, "geometry_name": "Jimblebar Hub", "id": "Jimblebar Hub", "properties": {}, "type": "Feature"}, {"commodity": "Pb", "country_code": "AU", "geometry": {"coordinates": [120.208397, -33.754559], "type": "Point"}, "geometry_name": "Trilogy", "id": "Trilogy", "properties": {}, "type": "Feature"}, {"commodity": "Au", "country_code": "AU", "geometry": {"coordinates": [121.798698, -32.197948], "type": "Point"}, "geometry_name": "Bullen", "id": "Bullen", "properties": {}, "type": "Feature"}, {"commodity": "Cu", "country_code": "AU", "geometry": {"coordinates": [122.210899, -21.722401], "type": "Point"}, "geometry_name": "Main Dome", "id": "Main Dome", "properties": {}, "type": "Feature"}, {"commodity": "Au", "country_code": "AU", "geometry": {"coordinates": [120.208397, -33.754559], "type": "Point"}, "geometry_name": "Trilogy", "id": "Trilogy", "properties": {}, "type": "Feature"}, {"commodity": "Cu", "country_code": "AU", "geometry": {"coordinates": [119.328132, -25.540623], "type": "Point"}, "geometry_name": "DeGrussa Resource Gp", "id": "DeGrussa Resource Gp", "properties": {}, "type": "Feature"}, {"commodity": "Au", "country_code": "AU", "geometry": {"coordinates": [116.964192, -28.776865], "type": "Point"}, "geometry_name": "Golden Grove Gp", "id": "Golden Grove Gp", "properties": {}, "type": "Feature"}, {"commodity": "Fe", "country_code": "AU", "geometry": {"coordinates": [120.1371, -23.380329], "type": "Point"}, "geometry_name": "Jimblebar Hub", "id": "Jimblebar Hub", "properties": {}, "type": "Feature"}, {"commodity": "Au", "country_code": "AU", "geometry": {"coordinates": [121.798698, -32.197948], "type": "Point"}, "geometry_name": "Bullen", "id": "Bullen", "properties": {}, "type": "Feature"}, {"commodity": "Cu", "country_code": "AU", "geometry": {"coordinates": [116.964192, -28.776865], "type": "Point"}, "geometry_name": "Golden Grove Gp", "id": "Golden Grove Gp", "properties": {}, "type": "Feature"}, {"commodity": "Fe", "country_code": "AU", "geometry": {"coordinates": [119.065498, -22.718639], "type": "Point"}, "geometry_name": "Yandi", "id": "Yandi", "properties": {}, "type": "Feature"}, {"commodity": "Fe", "country_code": "AU", "geometry": {"coordinates": [119.6754, -23.36536], "type": "Point"}, "geometry_name": "Newman Group", "id": "Newman Group", "properties": {}, "type": "Feature"}, {"commodity": "Cu", "country_code": "AU", "geometry": {"coordinates": [122.210899, -21.722401], "type": "Point"}, "geometry_name": "Main Dome", "id": "Main Dome", "properties": {}, "type": "Feature"}, {"commodity": "Zn", "country_code": "AU", "geometry": {"coordinates": [116.964192, -28.776865], "type": "Point"}, "geometry_name": "Golden Grove Gp", "id": "Golden Grove Gp", "properties": {}, "type": "Feature"}, {"commodity": "Fe", "country_code": "AU", "geometry": {"coordinates": [120.1371, -23.380329], "type": "Point"}, "geometry_name": "Jimblebar Hub", "id": "Jimblebar Hub", "properties": {}, "type": "Feature"}, {"commodity": "Au", "country_code": "AU", "geometry": {"coordinates": [116.964192, -28.776865], "type": "Point"}, "geometry_name": "Golden Grove Gp", "id": "Golden Grove Gp", "properties": {}, "type": "Feature"}, {"commodity": "Fe", "country_code": "AU", "geometry": {"coordinates": [120.1371, -23.380329], "type": "Point"}, "geometry_name": "Jimblebar Hub", "id": "Jimblebar Hub", "properties": {}, "type": "Feature"}, {"commodity": "Fe", "country_code": "AU", "geometry": {"coordinates": [119.6754, -23.36536], "type": "Point"}, "geometry_name": "Newman Group", "id": "Newman Group", "properties": {}, "type": "Feature"}, {"commodity": "Fe", "country_code": "AU", "geometry": {"coordinates": [116.242203, -21.750059], "type": "Point"}, "geometry_name": "Robe R Gp", "id": "Robe R Gp", "properties": {}, "type": "Feature"}, {"commodity": "Pb", "country_code": "AU", "geometry": {"coordinates": [119.211954, -21.146509], "type": "Point"}, "geometry_name": "Mine Portal", "id": "Mine Portal", "properties": {}, "type": "Feature"}, {"commodity": "Au", "country_code": "AU", "geometry": {"coordinates": [116.964192, -28.776865], "type": "Point"}, "geometry_name": "Golden Grove Gp", "id": "Golden Grove Gp", "properties": {}, "type": "Feature"}, {"commodity": "Fe", "country_code": "AU", "geometry": {"coordinates": [116.242203, -21.750059], "type": "Point"}, "geometry_name": "Robe R Gp", "id": "Robe R Gp", "properties": {}, "type": "Feature"}, {"commodity": "Fe", "country_code": "AU", "geometry": {"coordinates": [115.620499, -28.11491], "type": "Point"}, "geometry_name": "T6B", "id": "T6B", "properties": {}, "type": "Feature"}, {"commodity": "Fe", "country_code": "AU", "geometry": {"coordinates": [119.6754, -23.36536], "type": "Point"}, "geometry_name": "Newman Group", "id": "Newman Group", "properties": {}, "type": "Feature"}, {"commodity": "Ni", "country_code": "AU", "geometry": {"coordinates": [127.831596, -17.75153], "type": "Point"}, "geometry_name": "Panton", "id": "Panton", "properties": {}, "type": "Feature"}, {"commodity": "Fe", "country_code": "AU", "geometry": {"coordinates": [116.242203, -21.750059], "type": "Point"}, "geometry_name": "Robe R Gp", "id": "Robe R Gp", "properties": {}, "type": "Feature"}, {"commodity": "Cu", "country_code": "AU", "geometry": {"coordinates": [116.379426, -28.669106], "type": "Point"}, "geometry_name": "Deflector Resopurce Gp", "id": "Deflector Resopurce Gp", "properties": {}, "type": "Feature"}, {"commodity": "Pt", "country_code": "AU", "geometry": {"coordinates": [127.831596, -17.75153], "type": "Point"}, "geometry_name": "Panton", "id": "Panton", "properties": {}, "type": "Feature"},